[
  {
    "id": 26602,
    "name": "Muine Bheag",
    "name_norm": "Muine Bheag",
    "uic": NaN,
    "latitude": 52.699098,
    "longitude": -6.952521,
    "parent_station_id": NaN,
    "country": "IE",
    "time_zone": "Europe/Dublin",
    "is_city": false,
    "is_main_station": false,
    "is_airport": false,
    "entur_id": NaN,
    "entur_is_enabled": false,
    "trenord_id": NaN,
    "cercanias_id": NaN,
    "cercanias_hub_id": NaN,
    "cercanias_is_enabled": false
  },
  {
    "id": 26623,
    "name": "Arklow",
    "name_norm": "Arklow",
    "uic": NaN,
    "latitude": 52.798828,
    "longitude": -6.162137,
    "parent_station_id": NaN,
    "country": "IE",
    "time_zone": "Europe/Dublin",
    "is_city": false,
    "is_main_station": false,
    "is_airport": false,
    "entur_id": NaN,
    "entur_is_enabled": false,
    "trenord_id": NaN,
    "cercanias_id": NaN,
    "cercanias_hub_id": NaN,
    "cercanias_is_enabled": false
  },
  {
    "id": 26624,
    "name": "Athenry",
    "name_norm": "Athenry",
    "uic": NaN,
    "latitude": 53.302524,
    "longitude": -8.748659,
    "parent_station_id": NaN,
    "country": "IE",
    "time_zone": "Europe/Dublin",
    "is_city": false,
    "is_main_station": false,
    "is_airport": false,
    "entur_id": NaN,
    "entur_is_enabled": false,
    "trenord_id": NaN,
    "cercanias_id": NaN,
    "cercanias_hub_id": NaN,
    "cercanias_is_enabled": false
  },
  {
    "id": 26625,
    "name": "Athlone",
    "name_norm": "Athlone",
    "uic": NaN,
    "latitude": 53.427972,
    "longitude": -7.939653,
    "parent_station_id": NaN,
    "country": "IE",
    "time_zone": "Europe/Dublin",
    "is_city": false,
    "is_main_station": false,
    "is_airport": false,
    "entur_id": NaN,
    "entur_is_enabled": false,
    "trenord_id": NaN,
    "cercanias_id": NaN,
    "cercanias_hub_id": NaN,
    "cercanias_is_enabled": false
  },
  {
    "id": 26626,
    "name": "Athy",
    "name_norm": "Athy",
    "uic": NaN,
    "latitude": 52.992893,
    "longitude": -6.97657,
    "parent_station_id": NaN,
    "country": "IE",
    "time_zone": "Europe/Dublin",
    "is_city": false,
    "is_main_station": false,
    "is_airport": false,
    "entur_id": NaN,
    "entur_is_enabled": false,
    "trenord_id": NaN,
    "cercanias_id": NaN,
    "cercanias_hub_id": NaN,
    "cercanias_is_enabled": false
  },
  {
    "id": 26627,
    "name": "Ballina",
    "name_norm": "Ballina",
    "uic": NaN,
    "latitude": 54.113052,
    "longitude": -9.159261,
    "parent_station_id": NaN,
    "country": "IE",
    "time_zone": "Europe/Dublin",
    "is_city": false,
    "is_main_station": false,
    "is_airport": false,
    "entur_id": NaN,
    "entur_is_enabled": false,
    "trenord_id": NaN,
    "cercanias_id": NaN,
    "cercanias_hub_id": NaN,
    "cercanias_is_enabled": false
  },
  {
    "id": 26628,
    "name": "Ballinasloe",
    "name_norm": "Ballinasloe",
    "uic": NaN,
    "latitude": 53.336262,
    "longitude": -8.239186,
    "parent_station_id": NaN,
    "country": "IE",
    "time_zone": "Europe/Dublin",
    "is_city": false,
    "is_main_station": false,
    "is_airport": false,
    "entur_id": NaN,
    "entur_is_enabled": false,
    "trenord_id": NaN,
    "cercanias_id": NaN,
    "cercanias_hub_id": NaN,
    "cercanias_is_enabled": false
  },
  {
    "id": 26629,
    "name": "Ballybrophy",
    "name_norm": "Ballybrophy",
    "uic": NaN,
    "latitude": 52.898188,
    "longitude": -7.607513,
    "parent_station_id": NaN,
    "country": "IE",
    "time_zone": "Europe/Dublin",
    "is_city": false,
    "is_main_station": false,
    "is_airport": false,
    "entur_id": NaN,
    "entur_is_enabled": false,
    "trenord_id": NaN,
    "cercanias_id": NaN,
    "cercanias_hub_id": NaN,
    "cercanias_is_enabled": false
  },
  {
    "id": 26630,
    "name": "Ballyhaunis",
    "name_norm": "Ballyhaunis",
    "uic": NaN,
    "latitude": 53.761104,
    "longitude": -8.75924,
    "parent_station_id": NaN,
    "country": "IE",
    "time_zone": "Europe/Dublin",
    "is_city": false,
    "is_main_station": false,
    "is_airport": false,
    "entur_id": NaN,
    "entur_is_enabled": false,
    "trenord_id": NaN,
    "cercanias_id": NaN,
    "cercanias_hub_id": NaN,
    "cercanias_is_enabled": false
  },
  {
    "id": 26631,
    "name": "Ballymote",
    "name_norm": "Ballymote",
    "uic": NaN,
    "latitude": 54.08797,
    "longitude": -8.520787,
    "parent_station_id": NaN,
    "country": "IE",
    "time_zone": "Europe/Dublin",
    "is_city": false,
    "is_main_station": false,
    "is_airport": false,
    "entur_id": NaN,
    "entur_is_enabled": false,
    "trenord_id": NaN,
    "cercanias_id": NaN,
    "cercanias_hub_id": NaN,
    "cercanias_is_enabled": false
  },
  {
    "id": 26632,
    "name": "Banteer",
    "name_norm": "Banteer",
    "uic": NaN,
    "latitude": 52.129566,
    "longitude": -8.893986,
    "parent_station_id": NaN,
    "country": "IE",
    "time_zone": "Europe/Dublin",
    "is_city": false,
    "is_main_station": false,
    "is_airport": false,
    "entur_id": NaN,
    "entur_is_enabled": false,
    "trenord_id": NaN,
    "cercanias_id": NaN,
    "cercanias_hub_id": NaN,
    "cercanias_is_enabled": false
  },
  {
    "id": 26633,
    "name": "Birdhill",
    "name_norm": "Birdhill",
    "uic": NaN,
    "latitude": 52.766151,
    "longitude": -8.442094,
    "parent_station_id": NaN,
    "country": "IE",
    "time_zone": "Europe/Dublin",
    "is_city": false,
    "is_main_station": false,
    "is_airport": false,
    "entur_id": NaN,
    "entur_is_enabled": false,
    "trenord_id": NaN,
    "cercanias_id": NaN,
    "cercanias_hub_id": NaN,
    "cercanias_is_enabled": false
  },
  {
    "id": 26634,
    "name": "Boyle",
    "name_norm": "Boyle",
    "uic": NaN,
    "latitude": 53.964417,
    "longitude": -8.300513,
    "parent_station_id": NaN,
    "country": "IE",
    "time_zone": "Europe/Dublin",
    "is_city": true,
    "is_main_station": false,
    "is_airport": false,
    "entur_id": NaN,
    "entur_is_enabled": false,
    "trenord_id": NaN,
    "cercanias_id": NaN,
    "cercanias_hub_id": NaN,
    "cercanias_is_enabled": false
  },
  {
    "id": 26635,
    "name": "Carlow",
    "name_norm": "Carlow",
    "uic": NaN,
    "latitude": 52.843086,
    "longitude": -6.922894,
    "parent_station_id": NaN,
    "country": "IE",
    "time_zone": "Europe/Dublin",
    "is_city": false,
    "is_main_station": false,
    "is_airport": false,
    "entur_id": NaN,
    "entur_is_enabled": false,
    "trenord_id": NaN,
    "cercanias_id": NaN,
    "cercanias_hub_id": NaN,
    "cercanias_is_enabled": false
  },
  {
    "id": 26636,
    "name": "Castlebar",
    "name_norm": "Castlebar",
    "uic": NaN,
    "latitude": 53.847307,
    "longitude": -9.289426,
    "parent_station_id": NaN,
    "country": "IE",
    "time_zone": "Europe/Dublin",
    "is_city": false,
    "is_main_station": false,
    "is_airport": false,
    "entur_id": NaN,
    "entur_is_enabled": false,
    "trenord_id": NaN,
    "cercanias_id": NaN,
    "cercanias_hub_id": NaN,
    "cercanias_is_enabled": false
  },
  {
    "id": 26637,
    "name": "Castlerea",
    "name_norm": "Castlerea",
    "uic": NaN,
    "latitude": 53.765673,
    "longitude": -8.488737,
    "parent_station_id": NaN,
    "country": "IE",
    "time_zone": "Europe/Dublin",
    "is_city": false,
    "is_main_station": false,
    "is_airport": false,
    "entur_id": NaN,
    "entur_is_enabled": false,
    "trenord_id": NaN,
    "cercanias_id": NaN,
    "cercanias_hub_id": NaN,
    "cercanias_is_enabled": false
  },
  {
    "id": 26638,
    "name": "Charleville",
    "name_norm": "Charleville",
    "uic": NaN,
    "latitude": 52.339799,
    "longitude": -8.661019,
    "parent_station_id": NaN,
    "country": "IE",
    "time_zone": "Europe/Dublin",
    "is_city": false,
    "is_main_station": false,
    "is_airport": false,
    "entur_id": NaN,
    "entur_is_enabled": false,
    "trenord_id": NaN,
    "cercanias_id": NaN,
    "cercanias_hub_id": NaN,
    "cercanias_is_enabled": false
  },
  {
    "id": 26639,
    "name": "Clara",
    "name_norm": "Clara",
    "uic": NaN,
    "latitude": 53.333686,
    "longitude": -7.620513,
    "parent_station_id": NaN,
    "country": "IE",
    "time_zone": "Europe/Dublin",
    "is_city": false,
    "is_main_station": false,
    "is_airport": false,
    "entur_id": NaN,
    "entur_is_enabled": false,
    "trenord_id": NaN,
    "cercanias_id": NaN,
    "cercanias_hub_id": NaN,
    "cercanias_is_enabled": false
  },
  {
    "id": 26640,
    "name": "Claremorris",
    "name_norm": "Claremorris",
    "uic": NaN,
    "latitude": 53.71775,
    "longitude": -9.000106,
    "parent_station_id": NaN,
    "country": "IE",
    "time_zone": "Europe/Dublin",
    "is_city": false,
    "is_main_station": false,
    "is_airport": false,
    "entur_id": NaN,
    "entur_is_enabled": false,
    "trenord_id": NaN,
    "cercanias_id": NaN,
    "cercanias_hub_id": NaN,
    "cercanias_is_enabled": false
  },
  {
    "id": 26641,
    "name": "Clonmel",
    "name_norm": "Clonmel",
    "uic": NaN,
    "latitude": 52.361854,
    "longitude": -7.687379,
    "parent_station_id": NaN,
    "country": "IE",
    "time_zone": "Europe/Dublin",
    "is_city": false,
    "is_main_station": false,
    "is_airport": false,
    "entur_id": NaN,
    "entur_is_enabled": false,
    "trenord_id": NaN,
    "cercanias_id": NaN,
    "cercanias_hub_id": NaN,
    "cercanias_is_enabled": false
  },
  {
    "id": 26642,
    "name": "Collooney",
    "name_norm": "Collooney",
    "uic": NaN,
    "latitude": 54.186333,
    "longitude": -8.494182,
    "parent_station_id": NaN,
    "country": "IE",
    "time_zone": "Europe/Dublin",
    "is_city": false,
    "is_main_station": false,
    "is_airport": false,
    "entur_id": NaN,
    "entur_is_enabled": false,
    "trenord_id": NaN,
    "cercanias_id": NaN,
    "cercanias_hub_id": NaN,
    "cercanias_is_enabled": false
  },
  {
    "id": 26643,
    "name": "Drogheda",
    "name_norm": "Drogheda",
    "uic": NaN,
    "latitude": 53.710821,
    "longitude": -6.335024,
    "parent_station_id": NaN,
    "country": "IE",
    "time_zone": "Europe/Dublin",
    "is_city": false,
    "is_main_station": false,
    "is_airport": false,
    "entur_id": NaN,
    "entur_is_enabled": false,
    "trenord_id": NaN,
    "cercanias_id": NaN,
    "cercanias_hub_id": NaN,
    "cercanias_is_enabled": false
  },
  {
    "id": 26644,
    "name": "Dromod",
    "name_norm": "Dromod",
    "uic": NaN,
    "latitude": 53.858777,
    "longitude": -7.916057,
    "parent_station_id": NaN,
    "country": "IE",
    "time_zone": "Europe/Dublin",
    "is_city": false,
    "is_main_station": false,
    "is_airport": false,
    "entur_id": NaN,
    "entur_is_enabled": false,
    "trenord_id": NaN,
    "cercanias_id": NaN,
    "cercanias_hub_id": NaN,
    "cercanias_is_enabled": false
  },
  {
    "id": 26645,
    "name": "Dundalk",
    "name_norm": "Dundalk",
    "uic": NaN,
    "latitude": 54.000091,
    "longitude": -6.411718,
    "parent_station_id": NaN,
    "country": "IE",
    "time_zone": "Europe/Dublin",
    "is_city": false,
    "is_main_station": false,
    "is_airport": false,
    "entur_id": NaN,
    "entur_is_enabled": false,
    "trenord_id": NaN,
    "cercanias_id": NaN,
    "cercanias_hub_id": NaN,
    "cercanias_is_enabled": false
  },
  {
    "id": 26646,
    "name": "Ennis",
    "name_norm": "Ennis",
    "uic": NaN,
    "latitude": 52.840313,
    "longitude": -8.975398,
    "parent_station_id": NaN,
    "country": "IE",
    "time_zone": "Europe/Dublin",
    "is_city": false,
    "is_main_station": false,
    "is_airport": false,
    "entur_id": NaN,
    "entur_is_enabled": false,
    "trenord_id": NaN,
    "cercanias_id": NaN,
    "cercanias_hub_id": NaN,
    "cercanias_is_enabled": false
  },
  {
    "id": 26647,
    "name": "Enniscorthy",
    "name_norm": "Enniscorthy",
    "uic": NaN,
    "latitude": 52.501865,
    "longitude": -6.568806,
    "parent_station_id": NaN,
    "country": "IE",
    "time_zone": "Europe/Dublin",
    "is_city": false,
    "is_main_station": false,
    "is_airport": false,
    "entur_id": NaN,
    "entur_is_enabled": false,
    "trenord_id": NaN,
    "cercanias_id": NaN,
    "cercanias_hub_id": NaN,
    "cercanias_is_enabled": false
  },
  {
    "id": 26648,
    "name": "Farranfore",
    "name_norm": "Farranfore",
    "uic": NaN,
    "latitude": 52.175106,
    "longitude": -9.552423,
    "parent_station_id": NaN,
    "country": "IE",
    "time_zone": "Europe/Dublin",
    "is_city": false,
    "is_main_station": false,
    "is_airport": false,
    "entur_id": NaN,
    "entur_is_enabled": false,
    "trenord_id": NaN,
    "cercanias_id": NaN,
    "cercanias_hub_id": NaN,
    "cercanias_is_enabled": false
  },
  {
    "id": 26649,
    "name": "Foxford",
    "name_norm": "Foxford",
    "uic": NaN,
    "latitude": 53.982328,
    "longitude": -9.136664,
    "parent_station_id": NaN,
    "country": "IE",
    "time_zone": "Europe/Dublin",
    "is_city": false,
    "is_main_station": false,
    "is_airport": false,
    "entur_id": NaN,
    "entur_is_enabled": false,
    "trenord_id": NaN,
    "cercanias_id": NaN,
    "cercanias_hub_id": NaN,
    "cercanias_is_enabled": false
  },
  {
    "id": 26650,
    "name": "Galway",
    "name_norm": "Galway",
    "uic": NaN,
    "latitude": 53.27412,
    "longitude": -9.048094,
    "parent_station_id": NaN,
    "country": "IE",
    "time_zone": "Europe/Dublin",
    "is_city": false,
    "is_main_station": false,
    "is_airport": false,
    "entur_id": NaN,
    "entur_is_enabled": false,
    "trenord_id": NaN,
    "cercanias_id": NaN,
    "cercanias_hub_id": NaN,
    "cercanias_is_enabled": false
  },
  {
    "id": 26651,
    "name": "Gorey",
    "name_norm": "Gorey",
    "uic": NaN,
    "latitude": 52.670365,
    "longitude": -6.292469,
    "parent_station_id": NaN,
    "country": "IE",
    "time_zone": "Europe/Dublin",
    "is_city": false,
    "is_main_station": false,
    "is_airport": false,
    "entur_id": NaN,
    "entur_is_enabled": false,
    "trenord_id": NaN,
    "cercanias_id": NaN,
    "cercanias_hub_id": NaN,
    "cercanias_is_enabled": false
  },
  {
    "id": 26652,
    "name": "Greystones",
    "name_norm": "Greystones",
    "uic": NaN,
    "latitude": 53.146397,
    "longitude": -6.06401,
    "parent_station_id": NaN,
    "country": "IE",
    "time_zone": "Europe/Dublin",
    "is_city": false,
    "is_main_station": false,
    "is_airport": false,
    "entur_id": NaN,
    "entur_is_enabled": false,
    "trenord_id": NaN,
    "cercanias_id": NaN,
    "cercanias_hub_id": NaN,
    "cercanias_is_enabled": false
  },
  {
    "id": 26653,
    "name": "Kildare",
    "name_norm": "Kildare",
    "uic": NaN,
    "latitude": 53.154375,
    "longitude": -6.965223,
    "parent_station_id": NaN,
    "country": "IE",
    "time_zone": "Europe/Dublin",
    "is_city": false,
    "is_main_station": false,
    "is_airport": false,
    "entur_id": NaN,
    "entur_is_enabled": false,
    "trenord_id": NaN,
    "cercanias_id": NaN,
    "cercanias_hub_id": NaN,
    "cercanias_is_enabled": false
  },
  {
    "id": 26654,
    "name": "Kilkenny",
    "name_norm": "Kilkenny",
    "uic": NaN,
    "latitude": 52.652581,
    "longitude": -7.226891,
    "parent_station_id": NaN,
    "country": "IE",
    "time_zone": "Europe/Dublin",
    "is_city": false,
    "is_main_station": false,
    "is_airport": false,
    "entur_id": NaN,
    "entur_is_enabled": false,
    "trenord_id": NaN,
    "cercanias_id": NaN,
    "cercanias_hub_id": NaN,
    "cercanias_is_enabled": false
  },
  {
    "id": 26655,
    "name": "Killarney",
    "name_norm": "Killarney",
    "uic": NaN,
    "latitude": 52.069329,
    "longitude": -9.505965,
    "parent_station_id": NaN,
    "country": "IE",
    "time_zone": "Europe/Dublin",
    "is_city": false,
    "is_main_station": false,
    "is_airport": false,
    "entur_id": NaN,
    "entur_is_enabled": false,
    "trenord_id": NaN,
    "cercanias_id": NaN,
    "cercanias_hub_id": NaN,
    "cercanias_is_enabled": false
  },
  {
    "id": 26656,
    "name": "Limerick",
    "name_norm": "Limerick",
    "uic": NaN,
    "latitude": 52.65612,
    "longitude": -8.606355,
    "parent_station_id": NaN,
    "country": "IE",
    "time_zone": "Europe/Dublin",
    "is_city": false,
    "is_main_station": false,
    "is_airport": false,
    "entur_id": NaN,
    "entur_is_enabled": false,
    "trenord_id": NaN,
    "cercanias_id": NaN,
    "cercanias_hub_id": NaN,
    "cercanias_is_enabled": false
  },
  {
    "id": 26657,
    "name": "Limerick Junction",
    "name_norm": "Limerick Junction",
    "uic": NaN,
    "latitude": 52.497471,
    "longitude": -8.204458,
    "parent_station_id": NaN,
    "country": "IE",
    "time_zone": "Europe/Dublin",
    "is_city": false,
    "is_main_station": false,
    "is_airport": false,
    "entur_id": NaN,
    "entur_is_enabled": false,
    "trenord_id": NaN,
    "cercanias_id": NaN,
    "cercanias_hub_id": NaN,
    "cercanias_is_enabled": false
  },
  {
    "id": 26658,
    "name": "Longford",
    "name_norm": "Longford",
    "uic": NaN,
    "latitude": 53.725517,
    "longitude": -7.790312,
    "parent_station_id": NaN,
    "country": "IE",
    "time_zone": "Europe/Dublin",
    "is_city": false,
    "is_main_station": false,
    "is_airport": false,
    "entur_id": NaN,
    "entur_is_enabled": false,
    "trenord_id": NaN,
    "cercanias_id": NaN,
    "cercanias_hub_id": NaN,
    "cercanias_is_enabled": false
  },
  {
    "id": 26659,
    "name": "Mallow",
    "name_norm": "Mallow",
    "uic": NaN,
    "latitude": 52.135982,
    "longitude": -8.662459,
    "parent_station_id": NaN,
    "country": "IE",
    "time_zone": "Europe/Dublin",
    "is_city": false,
    "is_main_station": false,
    "is_airport": false,
    "entur_id": NaN,
    "entur_is_enabled": false,
    "trenord_id": NaN,
    "cercanias_id": NaN,
    "cercanias_hub_id": NaN,
    "cercanias_is_enabled": false
  },
  {
    "id": 26660,
    "name": "Millstreet",
    "name_norm": "Millstreet",
    "uic": NaN,
    "latitude": 52.077455,
    "longitude": -9.071169,
    "parent_station_id": NaN,
    "country": "IE",
    "time_zone": "Europe/Dublin",
    "is_city": false,
    "is_main_station": false,
    "is_airport": false,
    "entur_id": NaN,
    "entur_is_enabled": false,
    "trenord_id": NaN,
    "cercanias_id": NaN,
    "cercanias_hub_id": NaN,
    "cercanias_is_enabled": false
  },
  {
    "id": 26661,
    "name": "Mosney",
    "name_norm": "Mosney",
    "uic": NaN,
    "latitude": 53.650499,
    "longitude": -6.225105,
    "parent_station_id": NaN,
    "country": "IE",
    "time_zone": "Europe/Dublin",
    "is_city": false,
    "is_main_station": false,
    "is_airport": false,
    "entur_id": NaN,
    "entur_is_enabled": false,
    "trenord_id": NaN,
    "cercanias_id": NaN,
    "cercanias_hub_id": NaN,
    "cercanias_is_enabled": false
  },
  {
    "id": 26662,
    "name": "Mullingar",
    "name_norm": "Mullingar",
    "uic": NaN,
    "latitude": 53.521688,
    "longitude": -7.338903,
    "parent_station_id": NaN,
    "country": "IE",
    "time_zone": "Europe/Dublin",
    "is_city": false,
    "is_main_station": false,
    "is_airport": false,
    "entur_id": NaN,
    "entur_is_enabled": false,
    "trenord_id": NaN,
    "cercanias_id": NaN,
    "cercanias_hub_id": NaN,
    "cercanias_is_enabled": false
  },
  {
    "id": 26663,
    "name": "Nenagh",
    "name_norm": "Nenagh",
    "uic": NaN,
    "latitude": 52.859908,
    "longitude": -8.19536,
    "parent_station_id": NaN,
    "country": "IE",
    "time_zone": "Europe/Dublin",
    "is_city": false,
    "is_main_station": false,
    "is_airport": false,
    "entur_id": NaN,
    "entur_is_enabled": false,
    "trenord_id": NaN,
    "cercanias_id": NaN,
    "cercanias_hub_id": NaN,
    "cercanias_is_enabled": false
  },
  {
    "id": 26664,
    "name": "Portlaoise",
    "name_norm": "Portlaoise",
    "uic": NaN,
    "latitude": 53.035638,
    "longitude": -7.304006,
    "parent_station_id": NaN,
    "country": "IE",
    "time_zone": "Europe/Dublin",
    "is_city": false,
    "is_main_station": false,
    "is_airport": false,
    "entur_id": NaN,
    "entur_is_enabled": false,
    "trenord_id": NaN,
    "cercanias_id": NaN,
    "cercanias_hub_id": NaN,
    "cercanias_is_enabled": false
  },
  {
    "id": 26665,
    "name": "Rathdrum",
    "name_norm": "Rathdrum",
    "uic": NaN,
    "latitude": 52.93893,
    "longitude": -6.215727,
    "parent_station_id": NaN,
    "country": "IE",
    "time_zone": "Europe/Dublin",
    "is_city": false,
    "is_main_station": false,
    "is_airport": false,
    "entur_id": NaN,
    "entur_is_enabled": false,
    "trenord_id": NaN,
    "cercanias_id": NaN,
    "cercanias_hub_id": NaN,
    "cercanias_is_enabled": false
  },
  {
    "id": 26666,
    "name": "Rathmore",
    "name_norm": "Rathmore",
    "uic": NaN,
    "latitude": 52.086333,
    "longitude": -9.216922,
    "parent_station_id": NaN,
    "country": "IE",
    "time_zone": "Europe/Dublin",
    "is_city": false,
    "is_main_station": false,
    "is_airport": false,
    "entur_id": NaN,
    "entur_is_enabled": false,
    "trenord_id": NaN,
    "cercanias_id": NaN,
    "cercanias_hub_id": NaN,
    "cercanias_is_enabled": false
  },
  {
    "id": 26667,
    "name": "Roscommon",
    "name_norm": "Roscommon",
    "uic": NaN,
    "latitude": 53.629097,
    "longitude": -8.211503,
    "parent_station_id": NaN,
    "country": "IE",
    "time_zone": "Europe/Dublin",
    "is_city": false,
    "is_main_station": false,
    "is_airport": false,
    "entur_id": NaN,
    "entur_is_enabled": false,
    "trenord_id": NaN,
    "cercanias_id": NaN,
    "cercanias_hub_id": NaN,
    "cercanias_is_enabled": false
  },
  {
    "id": 26668,
    "name": "Roscrea",
    "name_norm": "Roscrea",
    "uic": NaN,
    "latitude": 52.958363,
    "longitude": -7.796555,
    "parent_station_id": NaN,
    "country": "IE",
    "time_zone": "Europe/Dublin",
    "is_city": false,
    "is_main_station": false,
    "is_airport": false,
    "entur_id": NaN,
    "entur_is_enabled": false,
    "trenord_id": NaN,
    "cercanias_id": NaN,
    "cercanias_hub_id": NaN,
    "cercanias_is_enabled": false
  },
  {
    "id": 26669,
    "name": "Rosslare Harbour",
    "name_norm": "Rosslare Harbour",
    "uic": NaN,
    "latitude": 52.254575,
    "longitude": -6.333994,
    "parent_station_id": NaN,
    "country": "IE",
    "time_zone": "Europe/Dublin",
    "is_city": false,
    "is_main_station": false,
    "is_airport": false,
    "entur_id": NaN,
    "entur_is_enabled": false,
    "trenord_id": NaN,
    "cercanias_id": NaN,
    "cercanias_hub_id": NaN,
    "cercanias_is_enabled": false
  },
  {
    "id": 26670,
    "name": "Rosslare Strand",
    "name_norm": "Rosslare Strand",
    "uic": NaN,
    "latitude": 52.271194,
    "longitude": -6.39101,
    "parent_station_id": NaN,
    "country": "IE",
    "time_zone": "Europe/Dublin",
    "is_city": false,
    "is_main_station": false,
    "is_airport": false,
    "entur_id": NaN,
    "entur_is_enabled": false,
    "trenord_id": NaN,
    "cercanias_id": NaN,
    "cercanias_hub_id": NaN,
    "cercanias_is_enabled": false
  },
  {
    "id": 26671,
    "name": "Sligo",
    "name_norm": "Sligo",
    "uic": NaN,
    "latitude": 54.271232,
    "longitude": -8.487385,
    "parent_station_id": NaN,
    "country": "IE",
    "time_zone": "Europe/Dublin",
    "is_city": false,
    "is_main_station": false,
    "is_airport": false,
    "entur_id": NaN,
    "entur_is_enabled": false,
    "trenord_id": NaN,
    "cercanias_id": NaN,
    "cercanias_hub_id": NaN,
    "cercanias_is_enabled": false
  },
  {
    "id": 26672,
    "name": "Templemore",
    "name_norm": "Templemore",
    "uic": NaN,
    "latitude": 52.797114,
    "longitude": -7.797725,
    "parent_station_id": NaN,
    "country": "IE",
    "time_zone": "Europe/Dublin",
    "is_city": false,
    "is_main_station": false,
    "is_airport": false,
    "entur_id": NaN,
    "entur_is_enabled": false,
    "trenord_id": NaN,
    "cercanias_id": NaN,
    "cercanias_hub_id": NaN,
    "cercanias_is_enabled": false
  },
  {
    "id": 26673,
    "name": "Thomastown",
    "name_norm": "Thomastown",
    "uic": NaN,
    "latitude": 52.51337,
    "longitude": -7.154345,
    "parent_station_id": NaN,
    "country": "IE",
    "time_zone": "Europe/Dublin",
    "is_city": false,
    "is_main_station": false,
    "is_airport": false,
    "entur_id": NaN,
    "entur_is_enabled": false,
    "trenord_id": NaN,
    "cercanias_id": NaN,
    "cercanias_hub_id": NaN,
    "cercanias_is_enabled": false
  },
  {
    "id": 26674,
    "name": "Thurles",
    "name_norm": "Thurles",
    "uic": NaN,
    "latitude": 52.677231,
    "longitude": -7.821903,
    "parent_station_id": NaN,
    "country": "IE",
    "time_zone": "Europe/Dublin",
    "is_city": false,
    "is_main_station": false,
    "is_airport": false,
    "entur_id": NaN,
    "entur_is_enabled": false,
    "trenord_id": NaN,
    "cercanias_id": NaN,
    "cercanias_hub_id": NaN,
    "cercanias_is_enabled": false
  },
  {
    "id": 26675,
    "name": "Tipperary",
    "name_norm": "Tipperary",
    "uic": NaN,
    "latitude": 52.470095,
    "longitude": -8.171231,
    "parent_station_id": NaN,
    "country": "IE",
    "time_zone": "Europe/Dublin",
    "is_city": true,
    "is_main_station": false,
    "is_airport": false,
    "entur_id": NaN,
    "entur_is_enabled": false,
    "trenord_id": NaN,
    "cercanias_id": NaN,
    "cercanias_hub_id": NaN,
    "cercanias_is_enabled": false
  },
  {
    "id": 26676,
    "name": "Tralee",
    "name_norm": "Tralee",
    "uic": NaN,
    "latitude": 52.271988,
    "longitude": -9.698882,
    "parent_station_id": NaN,
    "country": "IE",
    "time_zone": "Europe/Dublin",
    "is_city": false,
    "is_main_station": false,
    "is_airport": false,
    "entur_id": NaN,
    "entur_is_enabled": false,
    "trenord_id": NaN,
    "cercanias_id": NaN,
    "cercanias_hub_id": NaN,
    "cercanias_is_enabled": false
  },
  {
    "id": 26677,
    "name": "Tullamore",
    "name_norm": "Tullamore",
    "uic": NaN,
    "latitude": 53.269759,
    "longitude": -7.499324,
    "parent_station_id": NaN,
    "country": "IE",
    "time_zone": "Europe/Dublin",
    "is_city": false,
    "is_main_station": false,
    "is_airport": false,
    "entur_id": NaN,
    "entur_is_enabled": false,
    "trenord_id": NaN,
    "cercanias_id": NaN,
    "cercanias_hub_id": NaN,
    "cercanias_is_enabled": false
  },
  {
    "id": 26678,
    "name": "Waterford",
    "name_norm": "Waterford",
    "uic": NaN,
    "latitude": 52.26474,
    "longitude": -7.106463,
    "parent_station_id": NaN,
    "country": "IE",
    "time_zone": "Europe/Dublin",
    "is_city": false,
    "is_main_station": false,
    "is_airport": false,
    "entur_id": NaN,
    "entur_is_enabled": false,
    "trenord_id": NaN,
    "cercanias_id": NaN,
    "cercanias_hub_id": NaN,
    "cercanias_is_enabled": false
  },
  {
    "id": 26679,
    "name": "Westport",
    "name_norm": "Westport",
    "uic": NaN,
    "latitude": 53.79689,
    "longitude": -9.511246,
    "parent_station_id": NaN,
    "country": "IE",
    "time_zone": "Europe/Dublin",
    "is_city": false,
    "is_main_station": false,
    "is_airport": false,
    "entur_id": NaN,
    "entur_is_enabled": false,
    "trenord_id": NaN,
    "cercanias_id": NaN,
    "cercanias_hub_id": NaN,
    "cercanias_is_enabled": false
  },
  {
    "id": 26680,
    "name": "Wexford",
    "name_norm": "Wexford",
    "uic": NaN,
    "latitude": 52.341387,
    "longitude": -6.461878,
    "parent_station_id": NaN,
    "country": "IE",
    "time_zone": "Europe/Dublin",
    "is_city": false,
    "is_main_station": false,
    "is_airport": false,
    "entur_id": NaN,
    "entur_is_enabled": false,
    "trenord_id": NaN,
    "cercanias_id": NaN,
    "cercanias_hub_id": NaN,
    "cercanias_is_enabled": false
  },
  {
    "id": 26681,
    "name": "Wicklow",
    "name_norm": "Wicklow",
    "uic": NaN,
    "latitude": 52.988597,
    "longitude": -6.066072,
    "parent_station_id": NaN,
    "country": "IE",
    "time_zone": "Europe/Dublin",
    "is_city": false,
    "is_main_station": false,
    "is_airport": false,
    "entur_id": NaN,
    "entur_is_enabled": false,
    "trenord_id": NaN,
    "cercanias_id": NaN,
    "cercanias_hub_id": NaN,
    "cercanias_is_enabled": false
  },
  {
    "id": 26682,
    "name": "Woodlawn",
    "name_norm": "Woodlawn",
    "uic": NaN,
    "latitude": 53.342795,
    "longitude": -8.473797,
    "parent_station_id": NaN,
    "country": "IE",
    "time_zone": "Europe/Dublin",
    "is_city": false,
    "is_main_station": false,
    "is_airport": false,
    "entur_id": NaN,
    "entur_is_enabled": false,
    "trenord_id": NaN,
    "cercanias_id": NaN,
    "cercanias_hub_id": NaN,
    "cercanias_is_enabled": false
  },
  {
    "id": 26683,
    "name": "Carrick-On-Shannon",
    "name_norm": "Carrick-On-Shannon",
    "uic": NaN,
    "latitude": 53.938562,
    "longitude": -8.103708,
    "parent_station_id": NaN,
    "country": "IE",
    "time_zone": "Europe/Dublin",
    "is_city": false,
    "is_main_station": false,
    "is_airport": false,
    "entur_id": NaN,
    "entur_is_enabled": false,
    "trenord_id": NaN,
    "cercanias_id": NaN,
    "cercanias_hub_id": NaN,
    "cercanias_is_enabled": false
  },
  {
    "id": 26684,
    "name": "Carrick-On-Suir",
    "name_norm": "Carrick-On-Suir",
    "uic": NaN,
    "latitude": 52.347839,
    "longitude": -7.402704,
    "parent_station_id": NaN,
    "country": "IE",
    "time_zone": "Europe/Dublin",
    "is_city": false,
    "is_main_station": false,
    "is_airport": false,
    "entur_id": NaN,
    "entur_is_enabled": false,
    "trenord_id": NaN,
    "cercanias_id": NaN,
    "cercanias_hub_id": NaN,
    "cercanias_is_enabled": false
  },
  {
    "id": 26685,
    "name": "Castle Connell",
    "name_norm": "Castle Connell",
    "uic": NaN,
    "latitude": 52.691936,
    "longitude": -8.501293,
    "parent_station_id": NaN,
    "country": "IE",
    "time_zone": "Europe/Dublin",
    "is_city": false,
    "is_main_station": false,
    "is_airport": false,
    "entur_id": NaN,
    "entur_is_enabled": false,
    "trenord_id": NaN,
    "cercanias_id": NaN,
    "cercanias_hub_id": NaN,
    "cercanias_is_enabled": false
  },
  {
    "id": 26686,
    "name": "Dublin Connolly",
    "name_norm": "Dublin Connolly",
    "uic": NaN,
    "latitude": 53.351792,
    "longitude": -6.249522,
    "parent_station_id": 34264.0,
    "country": "IE",
    "time_zone": "Europe/Dublin",
    "is_city": false,
    "is_main_station": true,
    "is_airport": false,
    "entur_id": NaN,
    "entur_is_enabled": false,
    "trenord_id": NaN,
    "cercanias_id": NaN,
    "cercanias_hub_id": NaN,
    "cercanias_is_enabled": false
  },
  {
    "id": 26687,
    "name": "Dublin Heuston",
    "name_norm": "Dublin Heuston",
    "uic": NaN,
    "latitude": 53.345833,
    "longitude": -6.295299,
    "parent_station_id": 34264.0,
    "country": "IE",
    "time_zone": "Europe/Dublin",
    "is_city": false,
    "is_main_station": false,
    "is_airport": false,
    "entur_id": NaN,
    "entur_is_enabled": false,
    "trenord_id": NaN,
    "cercanias_id": NaN,
    "cercanias_hub_id": NaN,
    "cercanias_is_enabled": false
  },
  {
    "id": 26688,
    "name": "Cork",
    "name_norm": "Cork",
    "uic": NaN,
    "latitude": 51.902523,
    "longitude": -8.453709,
    "parent_station_id": NaN,
    "country": "IE",
    "time_zone": "Europe/Dublin",
    "is_city": false,
    "is_main_station": false,
    "is_airport": false,
    "entur_id": NaN,
    "entur_is_enabled": false,
    "trenord_id": NaN,
    "cercanias_id": NaN,
    "cercanias_hub_id": NaN,
    "cercanias_is_enabled": false
  },
  {
    "id": 26689,
    "name": "Manulla Junction",
    "name_norm": "Manulla Junction",
    "uic": NaN,
    "latitude": 53.827097,
    "longitude": -9.200521,
    "parent_station_id": NaN,
    "country": "IE",
    "time_zone": "Europe/Dublin",
    "is_city": false,
    "is_main_station": false,
    "is_airport": false,
    "entur_id": NaN,
    "entur_is_enabled": false,
    "trenord_id": NaN,
    "cercanias_id": NaN,
    "cercanias_hub_id": NaN,
    "cercanias_is_enabled": false
  },
  {
    "id": 26691,
    "name": "Attymon",
    "name_norm": "Attymon",
    "uic": NaN,
    "latitude": 53.323474,
    "longitude": -8.606696,
    "parent_station_id": NaN,
    "country": "IE",
    "time_zone": "Europe/Dublin",
    "is_city": false,
    "is_main_station": false,
    "is_airport": false,
    "entur_id": NaN,
    "entur_is_enabled": false,
    "trenord_id": NaN,
    "cercanias_id": NaN,
    "cercanias_hub_id": NaN,
    "cercanias_is_enabled": false
  },
  {
    "id": 26692,
    "name": "Cahir",
    "name_norm": "Cahir",
    "uic": NaN,
    "latitude": 52.375746,
    "longitude": -7.921141,
    "parent_station_id": NaN,
    "country": "IE",
    "time_zone": "Europe/Dublin",
    "is_city": false,
    "is_main_station": false,
    "is_airport": false,
    "entur_id": NaN,
    "entur_is_enabled": false,
    "trenord_id": NaN,
    "cercanias_id": NaN,
    "cercanias_hub_id": NaN,
    "cercanias_is_enabled": false
  },
  {
    "id": 26693,
    "name": "Cloughjordan",
    "name_norm": "Cloughjordan",
    "uic": NaN,
    "latitude": 52.936515,
    "longitude": -8.023078,
    "parent_station_id": NaN,
    "country": "IE",
    "time_zone": "Europe/Dublin",
    "is_city": false,
    "is_main_station": false,
    "is_airport": false,
    "entur_id": NaN,
    "entur_is_enabled": false,
    "trenord_id": NaN,
    "cercanias_id": NaN,
    "cercanias_hub_id": NaN,
    "cercanias_is_enabled": false
  },
  {
    "id": 26694,
    "name": "Droichead Nua",
    "name_norm": "Droichead Nua",
    "uic": NaN,
    "latitude": 53.185414,
    "longitude": -6.809655,
    "parent_station_id": NaN,
    "country": "IE",
    "time_zone": "Europe/Dublin",
    "is_city": false,
    "is_main_station": false,
    "is_airport": false,
    "entur_id": NaN,
    "entur_is_enabled": false,
    "trenord_id": NaN,
    "cercanias_id": NaN,
    "cercanias_hub_id": NaN,
    "cercanias_is_enabled": false
  },
  {
    "id": 26695,
    "name": "Enfield",
    "name_norm": "Enfield",
    "uic": NaN,
    "latitude": 53.413044,
    "longitude": -6.840505,
    "parent_station_id": NaN,
    "country": "IE",
    "time_zone": "Europe/Dublin",
    "is_city": false,
    "is_main_station": false,
    "is_airport": false,
    "entur_id": NaN,
    "entur_is_enabled": false,
    "trenord_id": NaN,
    "cercanias_id": NaN,
    "cercanias_hub_id": NaN,
    "cercanias_is_enabled": false
  },
  {
    "id": 26696,
    "name": "Mostrim",
    "name_norm": "Mostrim",
    "uic": NaN,
    "latitude": 53.686603,
    "longitude": -7.591559,
    "parent_station_id": NaN,
    "country": "IE",
    "time_zone": "Europe/Dublin",
    "is_city": false,
    "is_main_station": false,
    "is_airport": false,
    "entur_id": NaN,
    "entur_is_enabled": false,
    "trenord_id": NaN,
    "cercanias_id": NaN,
    "cercanias_hub_id": NaN,
    "cercanias_is_enabled": false
  },
  {
    "id": 26697,
    "name": "Portarlington",
    "name_norm": "Portarlington",
    "uic": NaN,
    "latitude": 53.153576,
    "longitude": -7.201183,
    "parent_station_id": NaN,
    "country": "IE",
    "time_zone": "Europe/Dublin",
    "is_city": false,
    "is_main_station": false,
    "is_airport": false,
    "entur_id": NaN,
    "entur_is_enabled": false,
    "trenord_id": NaN,
    "cercanias_id": NaN,
    "cercanias_hub_id": NaN,
    "cercanias_is_enabled": false
  },
  {
    "id": 32352,
    "name": "Dungarvan",
    "name_norm": "Dungarvan",
    "uic": NaN,
    "latitude": 52.08806,
    "longitude": -7.62528,
    "parent_station_id": NaN,
    "country": "IE",
    "time_zone": "Europe/Dublin",
    "is_city": true,
    "is_main_station": false,
    "is_airport": false,
    "entur_id": NaN,
    "entur_is_enabled": false,
    "trenord_id": NaN,
    "cercanias_id": NaN,
    "cercanias_hub_id": NaN,
    "cercanias_is_enabled": false
  },
  {
    "id": 32353,
    "name": "New Ross",
    "name_norm": "New Ross",
    "uic": NaN,
    "latitude": 52.39667,
    "longitude": -6.93667,
    "parent_station_id": NaN,
    "country": "IE",
    "time_zone": "Europe/Dublin",
    "is_city": true,
    "is_main_station": false,
    "is_airport": false,
    "entur_id": NaN,
    "entur_is_enabled": false,
    "trenord_id": NaN,
    "cercanias_id": NaN,
    "cercanias_hub_id": NaN,
    "cercanias_is_enabled": false
  },
  {
    "id": 34264,
    "name": "Dublin",
    "name_norm": "Dublin",
    "uic": NaN,
    "latitude": 53.346402,
    "longitude": -6.260695,
    "parent_station_id": NaN,
    "country": "IE",
    "time_zone": "Europe/Dublin",
    "is_city": true,
    "is_main_station": false,
    "is_airport": false,
    "entur_id": NaN,
    "entur_is_enabled": false,
    "trenord_id": NaN,
    "cercanias_id": NaN,
    "cercanias_hub_id": NaN,
    "cercanias_is_enabled": false
  },
  {
    "id": 34265,
    "name": "Dublin Airport",
    "name_norm": "Dublin Airport",
    "uic": NaN,
    "latitude": 53.428011,
    "longitude": -6.240389,
    "parent_station_id": NaN,
    "country": "IE",
    "time_zone": "Europe/Dublin",
    "is_city": false,
    "is_main_station": false,
    "is_airport": true,
    "entur_id": NaN,
    "entur_is_enabled": false,
    "trenord_id": NaN,
    "cercanias_id": NaN,
    "cercanias_hub_id": NaN,
    "cercanias_is_enabled": false
  },
  {
    "id": 35133,
    "name": "Cork Airport",
    "name_norm": "Cork Airport",
    "uic": NaN,
    "latitude": 51.848973,
    "longitude": -8.489024,
    "parent_station_id": NaN,
    "country": "IE",
    "time_zone": "Europe/Dublin",
    "is_city": false,
    "is_main_station": false,
    "is_airport": true,
    "entur_id": NaN,
    "entur_is_enabled": false,
    "trenord_id": NaN,
    "cercanias_id": NaN,
    "cercanias_hub_id": NaN,
    "cercanias_is_enabled": false
  },
  {
    "id": 35181,
    "name": "Clifden",
    "name_norm": "Clifden",
    "uic": NaN,
    "latitude": 53.553104,
    "longitude": -10.020934,
    "parent_station_id": NaN,
    "country": "IE",
    "time_zone": "Europe/Dublin",
    "is_city": true,
    "is_main_station": false,
    "is_airport": false,
    "entur_id": NaN,
    "entur_is_enabled": false,
    "trenord_id": NaN,
    "cercanias_id": NaN,
    "cercanias_hub_id": NaN,
    "cercanias_is_enabled": false
  },
  {
    "id": 35864,
    "name": "Ballyvourney",
    "name_norm": "Ballyvourney",
    "uic": NaN,
    "latitude": 51.904804,
    "longitude": -8.958848,
    "parent_station_id": NaN,
    "country": "IE",
    "time_zone": "Europe/Dublin",
    "is_city": true,
    "is_main_station": false,
    "is_airport": false,
    "entur_id": NaN,
    "entur_is_enabled": false,
    "trenord_id": NaN,
    "cercanias_id": NaN,
    "cercanias_hub_id": NaN,
    "cercanias_is_enabled": false
  },
  {
    "id": 35865,
    "name": "Bandung",
    "name_norm": "Bandung",
    "uic": NaN,
    "latitude": 51.746602,
    "longitude": -8.735488,
    "parent_station_id": NaN,
    "country": "IE",
    "time_zone": "Europe/Dublin",
    "is_city": true,
    "is_main_station": false,
    "is_airport": false,
    "entur_id": NaN,
    "entur_is_enabled": false,
    "trenord_id": NaN,
    "cercanias_id": NaN,
    "cercanias_hub_id": NaN,
    "cercanias_is_enabled": false
  },
  {
    "id": 35866,
    "name": "Bantry",
    "name_norm": "Bantry",
    "uic": NaN,
    "latitude": 51.679726,
    "longitude": -9.451508,
    "parent_station_id": NaN,
    "country": "IE",
    "time_zone": "Europe/Dublin",
    "is_city": true,
    "is_main_station": false,
    "is_airport": false,
    "entur_id": NaN,
    "entur_is_enabled": false,
    "trenord_id": NaN,
    "cercanias_id": NaN,
    "cercanias_hub_id": NaN,
    "cercanias_is_enabled": false
  },
  {
    "id": 35867,
    "name": "Belturbet",
    "name_norm": "Belturbet",
    "uic": NaN,
    "latitude": 54.101844,
    "longitude": -7.450286,
    "parent_station_id": NaN,
    "country": "IE",
    "time_zone": "Europe/Dublin",
    "is_city": true,
    "is_main_station": false,
    "is_airport": false,
    "entur_id": NaN,
    "entur_is_enabled": false,
    "trenord_id": NaN,
    "cercanias_id": NaN,
    "cercanias_hub_id": NaN,
    "cercanias_is_enabled": false
  },
  {
    "id": 35868,
    "name": "Caher",
    "name_norm": "Caher",
    "uic": NaN,
    "latitude": 52.955116,
    "longitude": -7.798152,
    "parent_station_id": NaN,
    "country": "IE",
    "time_zone": "Europe/Dublin",
    "is_city": true,
    "is_main_station": false,
    "is_airport": false,
    "entur_id": NaN,
    "entur_is_enabled": false,
    "trenord_id": NaN,
    "cercanias_id": NaN,
    "cercanias_hub_id": NaN,
    "cercanias_is_enabled": false
  },
  {
    "id": 35869,
    "name": "Castleblayney",
    "name_norm": "Castleblayney",
    "uic": NaN,
    "latitude": 54.119621,
    "longitude": -6.736653,
    "parent_station_id": NaN,
    "country": "IE",
    "time_zone": "Europe/Dublin",
    "is_city": true,
    "is_main_station": false,
    "is_airport": false,
    "entur_id": NaN,
    "entur_is_enabled": false,
    "trenord_id": NaN,
    "cercanias_id": NaN,
    "cercanias_hub_id": NaN,
    "cercanias_is_enabled": false
  },
  {
    "id": 35870,
    "name": "Clonakilty",
    "name_norm": "Clonakilty",
    "uic": NaN,
    "latitude": 51.623301,
    "longitude": -8.890484,
    "parent_station_id": NaN,
    "country": "IE",
    "time_zone": "Europe/Dublin",
    "is_city": true,
    "is_main_station": false,
    "is_airport": false,
    "entur_id": NaN,
    "entur_is_enabled": false,
    "trenord_id": NaN,
    "cercanias_id": NaN,
    "cercanias_hub_id": NaN,
    "cercanias_is_enabled": false
  },
  {
    "id": 35871,
    "name": "Ferns",
    "name_norm": "Ferns",
    "uic": NaN,
    "latitude": 52.589665,
    "longitude": -6.496327,
    "parent_station_id": NaN,
    "country": "IE",
    "time_zone": "Europe/Dublin",
    "is_city": true,
    "is_main_station": false,
    "is_airport": false,
    "entur_id": NaN,
    "entur_is_enabled": false,
    "trenord_id": NaN,
    "cercanias_id": NaN,
    "cercanias_hub_id": NaN,
    "cercanias_is_enabled": false
  },
  {
    "id": 35873,
    "name": "Strokestown",
    "name_norm": "Strokestown",
    "uic": NaN,
    "latitude": 53.809736,
    "longitude": -8.311607,
    "parent_station_id": NaN,
    "country": "IE",
    "time_zone": "Europe/Dublin",
    "is_city": true,
    "is_main_station": false,
    "is_airport": false,
    "entur_id": NaN,
    "entur_is_enabled": false,
    "trenord_id": NaN,
    "cercanias_id": NaN,
    "cercanias_hub_id": NaN,
    "cercanias_is_enabled": false
  },
  {
    "id": 35874,
    "name": "Glengarriff",
    "name_norm": "Glengarriff",
    "uic": NaN,
    "latitude": 51.750069,
    "longitude": -9.553198,
    "parent_station_id": NaN,
    "country": "IE",
    "time_zone": "Europe/Dublin",
    "is_city": true,
    "is_main_station": false,
    "is_airport": false,
    "entur_id": NaN,
    "entur_is_enabled": false,
    "trenord_id": NaN,
    "cercanias_id": NaN,
    "cercanias_hub_id": NaN,
    "cercanias_is_enabled": false
  },
  {
    "id": 35875,
    "name": "Goleen",
    "name_norm": "Goleen",
    "uic": NaN,
    "latitude": 51.492879,
    "longitude": -9.710578,
    "parent_station_id": NaN,
    "country": "IE",
    "time_zone": "Europe/Dublin",
    "is_city": true,
    "is_main_station": false,
    "is_airport": false,
    "entur_id": NaN,
    "entur_is_enabled": false,
    "trenord_id": NaN,
    "cercanias_id": NaN,
    "cercanias_hub_id": NaN,
    "cercanias_is_enabled": false
  },
  {
    "id": 35876,
    "name": "Inishannon",
    "name_norm": "Inishannon",
    "uic": NaN,
    "latitude": 52.1677,
    "longitude": -8.454712,
    "parent_station_id": NaN,
    "country": "IE",
    "time_zone": "Europe/Dublin",
    "is_city": true,
    "is_main_station": false,
    "is_airport": false,
    "entur_id": NaN,
    "entur_is_enabled": false,
    "trenord_id": NaN,
    "cercanias_id": NaN,
    "cercanias_hub_id": NaN,
    "cercanias_is_enabled": false
  },
  {
    "id": 35877,
    "name": "Kells",
    "name_norm": "Kells",
    "uic": NaN,
    "latitude": 53.726931,
    "longitude": -6.874062,
    "parent_station_id": NaN,
    "country": "IE",
    "time_zone": "Europe/Dublin",
    "is_city": true,
    "is_main_station": false,
    "is_airport": false,
    "entur_id": NaN,
    "entur_is_enabled": false,
    "trenord_id": NaN,
    "cercanias_id": NaN,
    "cercanias_hub_id": NaN,
    "cercanias_is_enabled": false
  },
  {
    "id": 35878,
    "name": "Kilbeggan",
    "name_norm": "Kilbeggan",
    "uic": NaN,
    "latitude": 53.368545,
    "longitude": -7.499726,
    "parent_station_id": NaN,
    "country": "IE",
    "time_zone": "Europe/Dublin",
    "is_city": true,
    "is_main_station": false,
    "is_airport": false,
    "entur_id": NaN,
    "entur_is_enabled": false,
    "trenord_id": NaN,
    "cercanias_id": NaN,
    "cercanias_hub_id": NaN,
    "cercanias_is_enabled": false
  },
  {
    "id": 35880,
    "name": "Knock",
    "name_norm": "Knock",
    "uic": NaN,
    "latitude": 53.791515,
    "longitude": -8.92176,
    "parent_station_id": NaN,
    "country": "IE",
    "time_zone": "Europe/Dublin",
    "is_city": true,
    "is_main_station": false,
    "is_airport": false,
    "entur_id": NaN,
    "entur_is_enabled": false,
    "trenord_id": NaN,
    "cercanias_id": NaN,
    "cercanias_hub_id": NaN,
    "cercanias_is_enabled": false
  },
  {
    "id": 35881,
    "name": "Letterkenny",
    "name_norm": "Letterkenny",
    "uic": NaN,
    "latitude": 54.953204,
    "longitude": -7.728898,
    "parent_station_id": NaN,
    "country": "IE",
    "time_zone": "Europe/Dublin",
    "is_city": true,
    "is_main_station": false,
    "is_airport": false,
    "entur_id": NaN,
    "entur_is_enabled": false,
    "trenord_id": NaN,
    "cercanias_id": NaN,
    "cercanias_hub_id": NaN,
    "cercanias_is_enabled": false
  },
  {
    "id": 35882,
    "name": "Lifford",
    "name_norm": "Lifford",
    "uic": NaN,
    "latitude": 54.702915,
    "longitude": -7.982828,
    "parent_station_id": NaN,
    "country": "IE",
    "time_zone": "Europe/Dublin",
    "is_city": true,
    "is_main_station": false,
    "is_airport": false,
    "entur_id": NaN,
    "entur_is_enabled": false,
    "trenord_id": NaN,
    "cercanias_id": NaN,
    "cercanias_hub_id": NaN,
    "cercanias_is_enabled": false
  },
  {
    "id": 35883,
    "name": "Mitchelstown",
    "name_norm": "Mitchelstown",
    "uic": NaN,
    "latitude": 52.266005,
    "longitude": -8.270723,
    "parent_station_id": NaN,
    "country": "IE",
    "time_zone": "Europe/Dublin",
    "is_city": true,
    "is_main_station": false,
    "is_airport": false,
    "entur_id": NaN,
    "entur_is_enabled": false,
    "trenord_id": NaN,
    "cercanias_id": NaN,
    "cercanias_hub_id": NaN,
    "cercanias_is_enabled": false
  },
  {
    "id": 35884,
    "name": "Moate",
    "name_norm": "Moate",
    "uic": NaN,
    "latitude": 53.390005,
    "longitude": -7.574592,
    "parent_station_id": NaN,
    "country": "IE",
    "time_zone": "Europe/Dublin",
    "is_city": true,
    "is_main_station": false,
    "is_airport": false,
    "entur_id": NaN,
    "entur_is_enabled": false,
    "trenord_id": NaN,
    "cercanias_id": NaN,
    "cercanias_hub_id": NaN,
    "cercanias_is_enabled": false
  },
  {
    "id": 35885,
    "name": "Monaghan",
    "name_norm": "Monaghan",
    "uic": NaN,
    "latitude": 54.249573,
    "longitude": -6.971346,
    "parent_station_id": NaN,
    "country": "IE",
    "time_zone": "Europe/Dublin",
    "is_city": true,
    "is_main_station": false,
    "is_airport": false,
    "entur_id": NaN,
    "entur_is_enabled": false,
    "trenord_id": NaN,
    "cercanias_id": NaN,
    "cercanias_hub_id": NaN,
    "cercanias_is_enabled": false
  },
  {
    "id": 35886,
    "name": "Virginia",
    "name_norm": "Virginia",
    "uic": NaN,
    "latitude": 53.834264,
    "longitude": -7.081087,
    "parent_station_id": NaN,
    "country": "IE",
    "time_zone": "Europe/Dublin",
    "is_city": true,
    "is_main_station": false,
    "is_airport": false,
    "entur_id": NaN,
    "entur_is_enabled": false,
    "trenord_id": NaN,
    "cercanias_id": NaN,
    "cercanias_hub_id": NaN,
    "cercanias_is_enabled": false
  },
  {
    "id": 35887,
    "name": "Callan",
    "name_norm": "Callan",
    "uic": NaN,
    "latitude": 52.543912,
    "longitude": -7.395828,
    "parent_station_id": NaN,
    "country": "IE",
    "time_zone": "Europe/Dublin",
    "is_city": true,
    "is_main_station": false,
    "is_airport": false,
    "entur_id": NaN,
    "entur_is_enabled": false,
    "trenord_id": NaN,
    "cercanias_id": NaN,
    "cercanias_hub_id": NaN,
    "cercanias_is_enabled": false
  },
  {
    "id": 35889,
    "name": "Youghal",
    "name_norm": "Youghal",
    "uic": NaN,
    "latitude": 51.955816,
    "longitude": -7.850319,
    "parent_station_id": NaN,
    "country": "IE",
    "time_zone": "Europe/Dublin",
    "is_city": true,
    "is_main_station": false,
    "is_airport": false,
    "entur_id": NaN,
    "entur_is_enabled": false,
    "trenord_id": NaN,
    "cercanias_id": NaN,
    "cercanias_hub_id": NaN,
    "cercanias_is_enabled": false
  },
  {
    "id": 35901,
    "name": "Kinsale",
    "name_norm": "Kinsale",
    "uic": NaN,
    "latitude": 51.731373,
    "longitude": -8.596965,
    "parent_station_id": NaN,
    "country": "IE",
    "time_zone": "Europe/Dublin",
    "is_city": true,
    "is_main_station": false,
    "is_airport": false,
    "entur_id": NaN,
    "entur_is_enabled": false,
    "trenord_id": NaN,
    "cercanias_id": NaN,
    "cercanias_hub_id": NaN,
    "cercanias_is_enabled": false
  },
  {
    "id": 35912,
    "name": "Abbeyfeale",
    "name_norm": "Abbeyfeale",
    "uic": NaN,
    "latitude": 52.471678,
    "longitude": -9.020451,
    "parent_station_id": NaN,
    "country": "IE",
    "time_zone": "Europe/Dublin",
    "is_city": true,
    "is_main_station": false,
    "is_airport": false,
    "entur_id": NaN,
    "entur_is_enabled": false,
    "trenord_id": NaN,
    "cercanias_id": NaN,
    "cercanias_hub_id": NaN,
    "cercanias_is_enabled": false
  },
  {
    "id": 35915,
    "name": "Midleton",
    "name_norm": "Midleton",
    "uic": NaN,
    "latitude": 51.913317,
    "longitude": -8.17185,
    "parent_station_id": NaN,
    "country": "IE",
    "time_zone": "Europe/Dublin",
    "is_city": true,
    "is_main_station": false,
    "is_airport": false,
    "entur_id": NaN,
    "entur_is_enabled": false,
    "trenord_id": NaN,
    "cercanias_id": NaN,
    "cercanias_hub_id": NaN,
    "cercanias_is_enabled": false
  },
  {
    "id": 35917,
    "name": "Kinnegad",
    "name_norm": "Kinnegad",
    "uic": NaN,
    "latitude": 53.611251,
    "longitude": -7.093885,
    "parent_station_id": NaN,
    "country": "IE",
    "time_zone": "Europe/Dublin",
    "is_city": true,
    "is_main_station": false,
    "is_airport": false,
    "entur_id": NaN,
    "entur_is_enabled": false,
    "trenord_id": NaN,
    "cercanias_id": NaN,
    "cercanias_hub_id": NaN,
    "cercanias_is_enabled": false
  },
  {
    "id": 35918,
    "name": "Grangemockler",
    "name_norm": "Grangemockler",
    "uic": NaN,
    "latitude": 52.443494,
    "longitude": -7.469203,
    "parent_station_id": NaN,
    "country": "IE",
    "time_zone": "Europe/Dublin",
    "is_city": true,
    "is_main_station": false,
    "is_airport": false,
    "entur_id": NaN,
    "entur_is_enabled": false,
    "trenord_id": NaN,
    "cercanias_id": NaN,
    "cercanias_hub_id": NaN,
    "cercanias_is_enabled": false
  },
  {
    "id": 35921,
    "name": "Rathnew",
    "name_norm": "Rathnew",
    "uic": NaN,
    "latitude": 52.993614,
    "longitude": -6.086243,
    "parent_station_id": NaN,
    "country": "IE",
    "time_zone": "Europe/Dublin",
    "is_city": true,
    "is_main_station": false,
    "is_airport": false,
    "entur_id": NaN,
    "entur_is_enabled": false,
    "trenord_id": NaN,
    "cercanias_id": NaN,
    "cercanias_hub_id": NaN,
    "cercanias_is_enabled": false
  },
  {
    "id": 35925,
    "name": "Carrickmacross",
    "name_norm": "Carrickmacross",
    "uic": NaN,
    "latitude": 53.978207,
    "longitude": -6.725158,
    "parent_station_id": NaN,
    "country": "IE",
    "time_zone": "Europe/Dublin",
    "is_city": true,
    "is_main_station": false,
    "is_airport": false,
    "entur_id": NaN,
    "entur_is_enabled": false,
    "trenord_id": NaN,
    "cercanias_id": NaN,
    "cercanias_hub_id": NaN,
    "cercanias_is_enabled": false
  },
  {
    "id": 35942,
    "name": "Skibbereen",
    "name_norm": "Skibbereen",
    "uic": NaN,
    "latitude": 51.549607,
    "longitude": -9.269609,
    "parent_station_id": NaN,
    "country": "IE",
    "time_zone": "Europe/Dublin",
    "is_city": true,
    "is_main_station": false,
    "is_airport": false,
    "entur_id": NaN,
    "entur_is_enabled": false,
    "trenord_id": NaN,
    "cercanias_id": NaN,
    "cercanias_hub_id": NaN,
    "cercanias_is_enabled": false
  },
  {
    "id": 35946,
    "name": "Ballineen",
    "name_norm": "Ballineen",
    "uic": NaN,
    "latitude": 51.709507,
    "longitude": -9.126154,
    "parent_station_id": NaN,
    "country": "IE",
    "time_zone": "Europe/Dublin",
    "is_city": true,
    "is_main_station": false,
    "is_airport": false,
    "entur_id": NaN,
    "entur_is_enabled": false,
    "trenord_id": NaN,
    "cercanias_id": NaN,
    "cercanias_hub_id": NaN,
    "cercanias_is_enabled": false
  },
  {
    "id": 35947,
    "name": "Ballydehob",
    "name_norm": "Ballydehob",
    "uic": NaN,
    "latitude": 51.563008,
    "longitude": -9.455367,
    "parent_station_id": NaN,
    "country": "IE",
    "time_zone": "Europe/Dublin",
    "is_city": true,
    "is_main_station": false,
    "is_airport": false,
    "entur_id": NaN,
    "entur_is_enabled": false,
    "trenord_id": NaN,
    "cercanias_id": NaN,
    "cercanias_hub_id": NaN,
    "cercanias_is_enabled": false
  },
  {
    "id": 35948,
    "name": "Ballyshannon",
    "name_norm": "Ballyshannon",
    "uic": NaN,
    "latitude": 55.123657,
    "longitude": -8.13063,
    "parent_station_id": NaN,
    "country": "IE",
    "time_zone": "Europe/Dublin",
    "is_city": true,
    "is_main_station": false,
    "is_airport": false,
    "entur_id": NaN,
    "entur_is_enabled": false,
    "trenord_id": NaN,
    "cercanias_id": NaN,
    "cercanias_hub_id": NaN,
    "cercanias_is_enabled": false
  },
  {
    "id": 35953,
    "name": "Shannon Airport",
    "name_norm": "Shannon Airport",
    "uic": NaN,
    "latitude": 52.699657,
    "longitude": -8.914691,
    "parent_station_id": NaN,
    "country": "IE",
    "time_zone": "Europe/Dublin",
    "is_city": false,
    "is_main_station": false,
    "is_airport": true,
    "entur_id": NaN,
    "entur_is_enabled": false,
    "trenord_id": NaN,
    "cercanias_id": NaN,
    "cercanias_hub_id": NaN,
    "cercanias_is_enabled": false
  },
  {
    "id": 35984,
    "name": "Edgeworthstown",
    "name_norm": "Edgeworthstown",
    "uic": NaN,
    "latitude": 53.697078,
    "longitude": -7.611983,
    "parent_station_id": NaN,
    "country": "IE",
    "time_zone": "Europe/Dublin",
    "is_city": true,
    "is_main_station": false,
    "is_airport": false,
    "entur_id": NaN,
    "entur_is_enabled": false,
    "trenord_id": NaN,
    "cercanias_id": NaN,
    "cercanias_hub_id": NaN,
    "cercanias_is_enabled": false
  },
  {
    "id": 35985,
    "name": "Naas",
    "name_norm": "Naas",
    "uic": NaN,
    "latitude": 53.219897,
    "longitude": -6.660216,
    "parent_station_id": NaN,
    "country": "IE",
    "time_zone": "Europe/Dublin",
    "is_city": true,
    "is_main_station": false,
    "is_airport": false,
    "entur_id": NaN,
    "entur_is_enabled": false,
    "trenord_id": NaN,
    "cercanias_id": NaN,
    "cercanias_hub_id": NaN,
    "cercanias_is_enabled": false
  },
  {
    "id": 35987,
    "name": "Adare",
    "name_norm": "Adare",
    "uic": NaN,
    "latitude": 52.565097,
    "longitude": -8.786644,
    "parent_station_id": NaN,
    "country": "IE",
    "time_zone": "Europe/Dublin",
    "is_city": true,
    "is_main_station": false,
    "is_airport": false,
    "entur_id": NaN,
    "entur_is_enabled": false,
    "trenord_id": NaN,
    "cercanias_id": NaN,
    "cercanias_hub_id": NaN,
    "cercanias_is_enabled": false
  },
  {
    "id": 35988,
    "name": "Ardee",
    "name_norm": "Ardee",
    "uic": NaN,
    "latitude": 53.863909,
    "longitude": -6.541012,
    "parent_station_id": NaN,
    "country": "IE",
    "time_zone": "Europe/Dublin",
    "is_city": true,
    "is_main_station": false,
    "is_airport": false,
    "entur_id": NaN,
    "entur_is_enabled": false,
    "trenord_id": NaN,
    "cercanias_id": NaN,
    "cercanias_hub_id": NaN,
    "cercanias_is_enabled": false
  },
  {
    "id": 35989,
    "name": "Ballaghadereen",
    "name_norm": "Ballaghadereen",
    "uic": NaN,
    "latitude": 53.901424,
    "longitude": -8.577396,
    "parent_station_id": NaN,
    "country": "IE",
    "time_zone": "Europe/Dublin",
    "is_city": true,
    "is_main_station": false,
    "is_airport": false,
    "entur_id": NaN,
    "entur_is_enabled": false,
    "trenord_id": NaN,
    "cercanias_id": NaN,
    "cercanias_hub_id": NaN,
    "cercanias_is_enabled": false
  },
  {
    "id": 35990,
    "name": "Cashel",
    "name_norm": "Cashel",
    "uic": NaN,
    "latitude": 52.446162,
    "longitude": -8.062191,
    "parent_station_id": NaN,
    "country": "IE",
    "time_zone": "Europe/Dublin",
    "is_city": true,
    "is_main_station": false,
    "is_airport": false,
    "entur_id": NaN,
    "entur_is_enabled": false,
    "trenord_id": NaN,
    "cercanias_id": NaN,
    "cercanias_hub_id": NaN,
    "cercanias_is_enabled": false
  },
  {
    "id": 35991,
    "name": "Cavan",
    "name_norm": "Cavan",
    "uic": NaN,
    "latitude": 53.992678,
    "longitude": -7.361884,
    "parent_station_id": NaN,
    "country": "IE",
    "time_zone": "Europe/Dublin",
    "is_city": true,
    "is_main_station": false,
    "is_airport": false,
    "entur_id": NaN,
    "entur_is_enabled": false,
    "trenord_id": NaN,
    "cercanias_id": NaN,
    "cercanias_hub_id": NaN,
    "cercanias_is_enabled": false
  },
  {
    "id": 35992,
    "name": "Charlestown",
    "name_norm": "Charlestown",
    "uic": NaN,
    "latitude": 53.814355,
    "longitude": -8.897539,
    "parent_station_id": NaN,
    "country": "IE",
    "time_zone": "Europe/Dublin",
    "is_city": true,
    "is_main_station": false,
    "is_airport": false,
    "entur_id": NaN,
    "entur_is_enabled": false,
    "trenord_id": NaN,
    "cercanias_id": NaN,
    "cercanias_hub_id": NaN,
    "cercanias_is_enabled": false
  },
  {
    "id": 35993,
    "name": "Listowel",
    "name_norm": "Listowel",
    "uic": NaN,
    "latitude": 52.417038,
    "longitude": -9.509512,
    "parent_station_id": NaN,
    "country": "IE",
    "time_zone": "Europe/Dublin",
    "is_city": true,
    "is_main_station": false,
    "is_airport": false,
    "entur_id": NaN,
    "entur_is_enabled": false,
    "trenord_id": NaN,
    "cercanias_id": NaN,
    "cercanias_hub_id": NaN,
    "cercanias_is_enabled": false
  },
  {
    "id": 35994,
    "name": "Loughrea",
    "name_norm": "Loughrea",
    "uic": NaN,
    "latitude": 53.205469,
    "longitude": -8.601227,
    "parent_station_id": NaN,
    "country": "IE",
    "time_zone": "Europe/Dublin",
    "is_city": true,
    "is_main_station": false,
    "is_airport": false,
    "entur_id": NaN,
    "entur_is_enabled": false,
    "trenord_id": NaN,
    "cercanias_id": NaN,
    "cercanias_hub_id": NaN,
    "cercanias_is_enabled": false
  },
  {
    "id": 35995,
    "name": "Macroom",
    "name_norm": "Macroom",
    "uic": NaN,
    "latitude": 51.904443,
    "longitude": -8.953166,
    "parent_station_id": NaN,
    "country": "IE",
    "time_zone": "Europe/Dublin",
    "is_city": true,
    "is_main_station": false,
    "is_airport": false,
    "entur_id": NaN,
    "entur_is_enabled": false,
    "trenord_id": NaN,
    "cercanias_id": NaN,
    "cercanias_hub_id": NaN,
    "cercanias_is_enabled": false
  },
  {
    "id": 35996,
    "name": "Navan",
    "name_norm": "Navan",
    "uic": NaN,
    "latitude": 53.653232,
    "longitude": -6.686411,
    "parent_station_id": NaN,
    "country": "IE",
    "time_zone": "Europe/Dublin",
    "is_city": true,
    "is_main_station": false,
    "is_airport": false,
    "entur_id": NaN,
    "entur_is_enabled": false,
    "trenord_id": NaN,
    "cercanias_id": NaN,
    "cercanias_hub_id": NaN,
    "cercanias_is_enabled": false
  },
  {
    "id": 35997,
    "name": "Newbridge Station",
    "name_norm": "Newbridge Station",
    "uic": NaN,
    "latitude": 53.181869,
    "longitude": -6.795377,
    "parent_station_id": NaN,
    "country": "IE",
    "time_zone": "Europe/Dublin",
    "is_city": true,
    "is_main_station": false,
    "is_airport": false,
    "entur_id": NaN,
    "entur_is_enabled": false,
    "trenord_id": NaN,
    "cercanias_id": NaN,
    "cercanias_hub_id": NaN,
    "cercanias_is_enabled": false
  },
  {
    "id": 35998,
    "name": "Newcastlewest",
    "name_norm": "Newcastlewest",
    "uic": NaN,
    "latitude": 52.448713,
    "longitude": -9.05394,
    "parent_station_id": NaN,
    "country": "IE",
    "time_zone": "Europe/Dublin",
    "is_city": true,
    "is_main_station": false,
    "is_airport": false,
    "entur_id": NaN,
    "entur_is_enabled": false,
    "trenord_id": NaN,
    "cercanias_id": NaN,
    "cercanias_hub_id": NaN,
    "cercanias_is_enabled": false
  },
  {
    "id": 35999,
    "name": "Newtownforbes",
    "name_norm": "Newtownforbes",
    "uic": NaN,
    "latitude": 53.717109,
    "longitude": -7.740777,
    "parent_station_id": NaN,
    "country": "IE",
    "time_zone": "Europe/Dublin",
    "is_city": true,
    "is_main_station": false,
    "is_airport": false,
    "entur_id": NaN,
    "entur_is_enabled": false,
    "trenord_id": NaN,
    "cercanias_id": NaN,
    "cercanias_hub_id": NaN,
    "cercanias_is_enabled": false
  },
  {
    "id": 36000,
    "name": "Swinford",
    "name_norm": "Swinford",
    "uic": NaN,
    "latitude": 53.981826,
    "longitude": -9.109547,
    "parent_station_id": NaN,
    "country": "IE",
    "time_zone": "Europe/Dublin",
    "is_city": true,
    "is_main_station": false,
    "is_airport": false,
    "entur_id": NaN,
    "entur_is_enabled": false,
    "trenord_id": NaN,
    "cercanias_id": NaN,
    "cercanias_hub_id": NaN,
    "cercanias_is_enabled": false
  },
  {
    "id": 36001,
    "name": "Shannon",
    "name_norm": "Shannon",
    "uic": NaN,
    "latitude": 52.706892,
    "longitude": -8.868303,
    "parent_station_id": NaN,
    "country": "IE",
    "time_zone": "Europe/Dublin",
    "is_city": true,
    "is_main_station": false,
    "is_airport": false,
    "entur_id": NaN,
    "entur_is_enabled": false,
    "trenord_id": NaN,
    "cercanias_id": NaN,
    "cercanias_hub_id": NaN,
    "cercanias_is_enabled": false
  },
  {
    "id": 36002,
    "name": "Tramore",
    "name_norm": "Tramore",
    "uic": NaN,
    "latitude": 52.162339,
    "longitude": -7.148588,
    "parent_station_id": NaN,
    "country": "IE",
    "time_zone": "Europe/Dublin",
    "is_city": true,
    "is_main_station": false,
    "is_airport": false,
    "entur_id": NaN,
    "entur_is_enabled": false,
    "trenord_id": NaN,
    "cercanias_id": NaN,
    "cercanias_hub_id": NaN,
    "cercanias_is_enabled": false
  },
  {
    "id": 36004,
    "name": "Donegal",
    "name_norm": "Donegal",
    "uic": NaN,
    "latitude": 54.634976,
    "longitude": -8.118289,
    "parent_station_id": NaN,
    "country": "IE",
    "time_zone": "Europe/Dublin",
    "is_city": true,
    "is_main_station": false,
    "is_airport": false,
    "entur_id": NaN,
    "entur_is_enabled": false,
    "trenord_id": NaN,
    "cercanias_id": NaN,
    "cercanias_hub_id": NaN,
    "cercanias_is_enabled": false
  },
  {
    "id": 36005,
    "name": "Drimoleague",
    "name_norm": "Drimoleague",
    "uic": NaN,
    "latitude": 51.660226,
    "longitude": -9.26059,
    "parent_station_id": NaN,
    "country": "IE",
    "time_zone": "Europe/Dublin",
    "is_city": true,
    "is_main_station": false,
    "is_airport": false,
    "entur_id": NaN,
    "entur_is_enabled": false,
    "trenord_id": NaN,
    "cercanias_id": NaN,
    "cercanias_hub_id": NaN,
    "cercanias_is_enabled": false
  },
  {
    "id": 36006,
    "name": "Dunmanway",
    "name_norm": "Dunmanway",
    "uic": NaN,
    "latitude": 52.172928,
    "longitude": -8.462791,
    "parent_station_id": NaN,
    "country": "IE",
    "time_zone": "Europe/Dublin",
    "is_city": true,
    "is_main_station": false,
    "is_airport": false,
    "entur_id": NaN,
    "entur_is_enabled": false,
    "trenord_id": NaN,
    "cercanias_id": NaN,
    "cercanias_hub_id": NaN,
    "cercanias_is_enabled": false
  },
  {
    "id": 36007,
    "name": "Fermoy",
    "name_norm": "Fermoy",
    "uic": NaN,
    "latitude": 52.133566,
    "longitude": -8.641007,
    "parent_station_id": NaN,
    "country": "IE",
    "time_zone": "Europe/Dublin",
    "is_city": true,
    "is_main_station": false,
    "is_airport": false,
    "entur_id": NaN,
    "entur_is_enabled": false,
    "trenord_id": NaN,
    "cercanias_id": NaN,
    "cercanias_hub_id": NaN,
    "cercanias_is_enabled": false
  },
  {
    "id": 36014,
    "name": "Rosscarbery",
    "name_norm": "Rosscarbery",
    "uic": NaN,
    "latitude": 51.812668,
    "longitude": -8.302303,
    "parent_station_id": NaN,
    "country": "IE",
    "time_zone": "Europe/Dublin",
    "is_city": true,
    "is_main_station": false,
    "is_airport": false,
    "entur_id": NaN,
    "entur_is_enabled": false,
    "trenord_id": NaN,
    "cercanias_id": NaN,
    "cercanias_hub_id": NaN,
    "cercanias_is_enabled": false
  },
  {
    "id": 36015,
    "name": "Schull",
    "name_norm": "Schull",
    "uic": NaN,
    "latitude": 51.5271,
    "longitude": -9.547629,
    "parent_station_id": NaN,
    "country": "IE",
    "time_zone": "Europe/Dublin",
    "is_city": true,
    "is_main_station": false,
    "is_airport": false,
    "entur_id": NaN,
    "entur_is_enabled": false,
    "trenord_id": NaN,
    "cercanias_id": NaN,
    "cercanias_hub_id": NaN,
    "cercanias_is_enabled": false
  },
  {
    "id": 68040,
    "name": "Bray",
    "name_norm": "Bray",
    "uic": NaN,
    "latitude": 53.196936,
    "longitude": -6.105594,
    "parent_station_id": NaN,
    "country": "IE",
    "time_zone": "Europe/Dublin",
    "is_city": true,
    "is_main_station": false,
    "is_airport": false,
    "entur_id": NaN,
    "entur_is_enabled": false,
    "trenord_id": NaN,
    "cercanias_id": NaN,
    "cercanias_hub_id": NaN,
    "cercanias_is_enabled": false
  },
  {
    "id": 68041,
    "name": "Maynooth",
    "name_norm": "Maynooth",
    "uic": NaN,
    "latitude": 53.3797,
    "longitude": -6.58902,
    "parent_station_id": NaN,
    "country": "IE",
    "time_zone": "Europe/Dublin",
    "is_city": true,
    "is_main_station": false,
    "is_airport": false,
    "entur_id": NaN,
    "entur_is_enabled": false,
    "trenord_id": NaN,
    "cercanias_id": NaN,
    "cercanias_hub_id": NaN,
    "cercanias_is_enabled": false
  }
]