[
  {
    "id": 28610,
    "name": "Arad",
    "name_norm": "Arad",
    "uic": 5321834.0,
    "latitude": 46.18956,
    "longitude": 21.32555,
    "parent_station_id": NaN,
    "country": "RO",
    "time_zone": "Europe/Bucharest",
    "is_city": false,
    "is_main_station": false,
    "is_airport": false,
    "entur_id": NaN,
    "entur_is_enabled": false,
    "trenord_id": NaN,
    "cercanias_id": NaN,
    "cercanias_hub_id": NaN,
    "cercanias_is_enabled": false
  },
  {
    "id": 28611,
    "name": "Sibiu",
    "name_norm": "Sibiu",
    "uic": NaN,
    "latitude": 45.802997,
    "longitude": 24.160316,
    "parent_station_id": NaN,
    "country": "RO",
    "time_zone": "Europe/Bucharest",
    "is_city": false,
    "is_main_station": false,
    "is_airport": false,
    "entur_id": NaN,
    "entur_is_enabled": false,
    "trenord_id": NaN,
    "cercanias_id": NaN,
    "cercanias_hub_id": NaN,
    "cercanias_is_enabled": false
  },
  {
    "id": 28612,
    "name": "Sighișoara",
    "name_norm": "Sighisoara",
    "uic": 5331217.0,
    "latitude": 46.226398,
    "longitude": 24.795737,
    "parent_station_id": NaN,
    "country": "RO",
    "time_zone": "Europe/Bucharest",
    "is_city": false,
    "is_main_station": false,
    "is_airport": false,
    "entur_id": NaN,
    "entur_is_enabled": false,
    "trenord_id": NaN,
    "cercanias_id": NaN,
    "cercanias_hub_id": NaN,
    "cercanias_is_enabled": false
  },
  {
    "id": 28613,
    "name": "Mediaș",
    "name_norm": "Medias",
    "uic": 5331334.0,
    "latitude": 46.160165,
    "longitude": 24.34944,
    "parent_station_id": NaN,
    "country": "RO",
    "time_zone": "Europe/Bucharest",
    "is_city": false,
    "is_main_station": false,
    "is_airport": false,
    "entur_id": NaN,
    "entur_is_enabled": false,
    "trenord_id": NaN,
    "cercanias_id": NaN,
    "cercanias_hub_id": NaN,
    "cercanias_is_enabled": false
  },
  {
    "id": 28614,
    "name": "Oradea",
    "name_norm": "Oradea",
    "uic": NaN,
    "latitude": 47.070665,
    "longitude": 21.935917,
    "parent_station_id": NaN,
    "country": "RO",
    "time_zone": "Europe/Bucharest",
    "is_city": false,
    "is_main_station": false,
    "is_airport": false,
    "entur_id": NaN,
    "entur_is_enabled": false,
    "trenord_id": NaN,
    "cercanias_id": NaN,
    "cercanias_hub_id": NaN,
    "cercanias_is_enabled": false
  },
  {
    "id": 28615,
    "name": "Alba Iulia",
    "name_norm": "Alba Iulia",
    "uic": 5323038.0,
    "latitude": 46.056628,
    "longitude": 23.586274,
    "parent_station_id": NaN,
    "country": "RO",
    "time_zone": "Europe/Bucharest",
    "is_city": false,
    "is_main_station": false,
    "is_airport": false,
    "entur_id": NaN,
    "entur_is_enabled": false,
    "trenord_id": NaN,
    "cercanias_id": NaN,
    "cercanias_hub_id": NaN,
    "cercanias_is_enabled": false
  },
  {
    "id": 28616,
    "name": "Brașov",
    "name_norm": "Brasov",
    "uic": 5330691.0,
    "latitude": 45.661516,
    "longitude": 25.61371,
    "parent_station_id": NaN,
    "country": "RO",
    "time_zone": "Europe/Bucharest",
    "is_city": false,
    "is_main_station": false,
    "is_airport": false,
    "entur_id": NaN,
    "entur_is_enabled": false,
    "trenord_id": NaN,
    "cercanias_id": NaN,
    "cercanias_hub_id": NaN,
    "cercanias_is_enabled": false
  },
  {
    "id": 28617,
    "name": "București Nord",
    "name_norm": "Bucuresti Nord",
    "uic": 5310017.0,
    "latitude": 44.446767,
    "longitude": 26.074407,
    "parent_station_id": 29492.0,
    "country": "RO",
    "time_zone": "Europe/Bucharest",
    "is_city": false,
    "is_main_station": false,
    "is_airport": false,
    "entur_id": NaN,
    "entur_is_enabled": false,
    "trenord_id": NaN,
    "cercanias_id": NaN,
    "cercanias_hub_id": NaN,
    "cercanias_is_enabled": false
  },
  {
    "id": 28618,
    "name": "Cluj Napoca",
    "name_norm": "Cluj Napoca",
    "uic": NaN,
    "latitude": 46.786219,
    "longitude": 23.594149,
    "parent_station_id": NaN,
    "country": "RO",
    "time_zone": "Europe/Bucharest",
    "is_city": false,
    "is_main_station": false,
    "is_airport": false,
    "entur_id": NaN,
    "entur_is_enabled": false,
    "trenord_id": NaN,
    "cercanias_id": NaN,
    "cercanias_hub_id": NaN,
    "cercanias_is_enabled": false
  },
  {
    "id": 28619,
    "name": "Constanta",
    "name_norm": "Constanta",
    "uic": NaN,
    "latitude": 44.169486,
    "longitude": 28.63147,
    "parent_station_id": NaN,
    "country": "RO",
    "time_zone": "Europe/Bucharest",
    "is_city": false,
    "is_main_station": false,
    "is_airport": false,
    "entur_id": NaN,
    "entur_is_enabled": false,
    "trenord_id": NaN,
    "cercanias_id": NaN,
    "cercanias_hub_id": NaN,
    "cercanias_is_enabled": false
  },
  {
    "id": 28620,
    "name": "Craiova",
    "name_norm": "Craiova",
    "uic": NaN,
    "latitude": 44.329081,
    "longitude": 23.817108,
    "parent_station_id": NaN,
    "country": "RO",
    "time_zone": "Europe/Bucharest",
    "is_city": false,
    "is_main_station": false,
    "is_airport": false,
    "entur_id": NaN,
    "entur_is_enabled": false,
    "trenord_id": NaN,
    "cercanias_id": NaN,
    "cercanias_hub_id": NaN,
    "cercanias_is_enabled": false
  },
  {
    "id": 28621,
    "name": "Coșlariu",
    "name_norm": "Coslariu",
    "uic": 5322929.0,
    "latitude": 46.135751,
    "longitude": 23.65746,
    "parent_station_id": NaN,
    "country": "RO",
    "time_zone": "Europe/Bucharest",
    "is_city": false,
    "is_main_station": false,
    "is_airport": false,
    "entur_id": NaN,
    "entur_is_enabled": false,
    "trenord_id": NaN,
    "cercanias_id": NaN,
    "cercanias_hub_id": NaN,
    "cercanias_is_enabled": false
  },
  {
    "id": 28622,
    "name": "Curtici",
    "name_norm": "Curtici",
    "uic": 5300947.0,
    "latitude": 46.34101,
    "longitude": 21.297701,
    "parent_station_id": NaN,
    "country": "RO",
    "time_zone": "Europe/Bucharest",
    "is_city": false,
    "is_main_station": false,
    "is_airport": false,
    "entur_id": NaN,
    "entur_is_enabled": false,
    "trenord_id": NaN,
    "cercanias_id": NaN,
    "cercanias_hub_id": NaN,
    "cercanias_is_enabled": false
  },
  {
    "id": 28623,
    "name": "Deva",
    "name_norm": "Deva",
    "uic": 5321286.0,
    "latitude": 45.884538,
    "longitude": 22.910195,
    "parent_station_id": NaN,
    "country": "RO",
    "time_zone": "Europe/Bucharest",
    "is_city": false,
    "is_main_station": false,
    "is_airport": false,
    "entur_id": NaN,
    "entur_is_enabled": false,
    "trenord_id": NaN,
    "cercanias_id": NaN,
    "cercanias_hub_id": NaN,
    "cercanias_is_enabled": false
  },
  {
    "id": 28624,
    "name": "Timișoara Nord",
    "name_norm": "Timisoara Nord",
    "uic": 5311906.0,
    "latitude": 45.75121,
    "longitude": 21.20656,
    "parent_station_id": 29549.0,
    "country": "RO",
    "time_zone": "Europe/Bucharest",
    "is_city": false,
    "is_main_station": false,
    "is_airport": false,
    "entur_id": NaN,
    "entur_is_enabled": false,
    "trenord_id": NaN,
    "cercanias_id": NaN,
    "cercanias_hub_id": NaN,
    "cercanias_is_enabled": false
  },
  {
    "id": 29481,
    "name": "Adjud",
    "name_norm": "Adjud",
    "uic": NaN,
    "latitude": 46.096196,
    "longitude": 27.18219,
    "parent_station_id": NaN,
    "country": "RO",
    "time_zone": "Europe/Bucharest",
    "is_city": true,
    "is_main_station": false,
    "is_airport": false,
    "entur_id": NaN,
    "entur_is_enabled": false,
    "trenord_id": NaN,
    "cercanias_id": NaN,
    "cercanias_hub_id": NaN,
    "cercanias_is_enabled": false
  },
  {
    "id": 29482,
    "name": "Aiud",
    "name_norm": "Aiud",
    "uic": NaN,
    "latitude": 46.308663,
    "longitude": 23.724558,
    "parent_station_id": NaN,
    "country": "RO",
    "time_zone": "Europe/Bucharest",
    "is_city": true,
    "is_main_station": false,
    "is_airport": false,
    "entur_id": NaN,
    "entur_is_enabled": false,
    "trenord_id": NaN,
    "cercanias_id": NaN,
    "cercanias_hub_id": NaN,
    "cercanias_is_enabled": false
  },
  {
    "id": 29483,
    "name": "Alexandria (Autogară)",
    "name_norm": "Alexandria (Autogara)",
    "uic": NaN,
    "latitude": 43.962514,
    "longitude": 25.329841,
    "parent_station_id": NaN,
    "country": "RO",
    "time_zone": "Europe/Bucharest",
    "is_city": true,
    "is_main_station": false,
    "is_airport": false,
    "entur_id": NaN,
    "entur_is_enabled": false,
    "trenord_id": NaN,
    "cercanias_id": NaN,
    "cercanias_hub_id": NaN,
    "cercanias_is_enabled": false
  },
  {
    "id": 29484,
    "name": "Aleșd",
    "name_norm": "Alesd",
    "uic": NaN,
    "latitude": 47.059019,
    "longitude": 22.398065,
    "parent_station_id": NaN,
    "country": "RO",
    "time_zone": "Europe/Bucharest",
    "is_city": true,
    "is_main_station": false,
    "is_airport": false,
    "entur_id": NaN,
    "entur_is_enabled": false,
    "trenord_id": NaN,
    "cercanias_id": NaN,
    "cercanias_hub_id": NaN,
    "cercanias_is_enabled": false
  },
  {
    "id": 29485,
    "name": "Bacău",
    "name_norm": "Bacau",
    "uic": NaN,
    "latitude": 46.567044,
    "longitude": 26.914575,
    "parent_station_id": NaN,
    "country": "RO",
    "time_zone": "Europe/Bucharest",
    "is_city": true,
    "is_main_station": false,
    "is_airport": false,
    "entur_id": NaN,
    "entur_is_enabled": false,
    "trenord_id": NaN,
    "cercanias_id": NaN,
    "cercanias_hub_id": NaN,
    "cercanias_is_enabled": false
  },
  {
    "id": 29486,
    "name": "Baia Mare",
    "name_norm": "Baia Mare",
    "uic": NaN,
    "latitude": 47.656739,
    "longitude": 23.584988,
    "parent_station_id": NaN,
    "country": "RO",
    "time_zone": "Europe/Bucharest",
    "is_city": true,
    "is_main_station": false,
    "is_airport": false,
    "entur_id": NaN,
    "entur_is_enabled": false,
    "trenord_id": NaN,
    "cercanias_id": NaN,
    "cercanias_hub_id": NaN,
    "cercanias_is_enabled": false
  },
  {
    "id": 29487,
    "name": "Balș",
    "name_norm": "Bals",
    "uic": NaN,
    "latitude": 44.353354,
    "longitude": 24.095673,
    "parent_station_id": NaN,
    "country": "RO",
    "time_zone": "Europe/Bucharest",
    "is_city": true,
    "is_main_station": false,
    "is_airport": false,
    "entur_id": NaN,
    "entur_is_enabled": false,
    "trenord_id": NaN,
    "cercanias_id": NaN,
    "cercanias_hub_id": NaN,
    "cercanias_is_enabled": false
  },
  {
    "id": 29488,
    "name": "Beclean",
    "name_norm": "Beclean",
    "uic": NaN,
    "latitude": 47.180068,
    "longitude": 24.170403,
    "parent_station_id": NaN,
    "country": "RO",
    "time_zone": "Europe/Bucharest",
    "is_city": true,
    "is_main_station": false,
    "is_airport": false,
    "entur_id": NaN,
    "entur_is_enabled": false,
    "trenord_id": NaN,
    "cercanias_id": NaN,
    "cercanias_hub_id": NaN,
    "cercanias_is_enabled": false
  },
  {
    "id": 29489,
    "name": "Bistrița",
    "name_norm": "Bistrita",
    "uic": NaN,
    "latitude": 47.139262,
    "longitude": 24.489098,
    "parent_station_id": NaN,
    "country": "RO",
    "time_zone": "Europe/Bucharest",
    "is_city": true,
    "is_main_station": false,
    "is_airport": false,
    "entur_id": NaN,
    "entur_is_enabled": false,
    "trenord_id": NaN,
    "cercanias_id": NaN,
    "cercanias_hub_id": NaN,
    "cercanias_is_enabled": false
  },
  {
    "id": 29490,
    "name": "Botoșani",
    "name_norm": "Botosani",
    "uic": NaN,
    "latitude": 47.740654,
    "longitude": 26.665813,
    "parent_station_id": NaN,
    "country": "RO",
    "time_zone": "Europe/Bucharest",
    "is_city": true,
    "is_main_station": false,
    "is_airport": false,
    "entur_id": NaN,
    "entur_is_enabled": false,
    "trenord_id": NaN,
    "cercanias_id": NaN,
    "cercanias_hub_id": NaN,
    "cercanias_is_enabled": false
  },
  {
    "id": 29491,
    "name": "Brăila",
    "name_norm": "Braila",
    "uic": NaN,
    "latitude": 45.265246,
    "longitude": 27.959471,
    "parent_station_id": NaN,
    "country": "RO",
    "time_zone": "Europe/Bucharest",
    "is_city": true,
    "is_main_station": false,
    "is_airport": false,
    "entur_id": NaN,
    "entur_is_enabled": false,
    "trenord_id": NaN,
    "cercanias_id": NaN,
    "cercanias_hub_id": NaN,
    "cercanias_is_enabled": false
  },
  {
    "id": 29492,
    "name": "Bucharest",
    "name_norm": "Bucharest",
    "uic": NaN,
    "latitude": 44.426767,
    "longitude": 26.102538,
    "parent_station_id": NaN,
    "country": "RO",
    "time_zone": "Europe/Bucharest",
    "is_city": true,
    "is_main_station": false,
    "is_airport": false,
    "entur_id": NaN,
    "entur_is_enabled": false,
    "trenord_id": NaN,
    "cercanias_id": NaN,
    "cercanias_hub_id": NaN,
    "cercanias_is_enabled": false
  },
  {
    "id": 29493,
    "name": "Bumbești-Jiu",
    "name_norm": "Bumbesti-Jiu",
    "uic": NaN,
    "latitude": 45.177625,
    "longitude": 23.385616,
    "parent_station_id": NaN,
    "country": "RO",
    "time_zone": "Europe/Bucharest",
    "is_city": true,
    "is_main_station": false,
    "is_airport": false,
    "entur_id": NaN,
    "entur_is_enabled": false,
    "trenord_id": NaN,
    "cercanias_id": NaN,
    "cercanias_hub_id": NaN,
    "cercanias_is_enabled": false
  },
  {
    "id": 29494,
    "name": "Buzău",
    "name_norm": "Buzau",
    "uic": NaN,
    "latitude": 45.137111,
    "longitude": 26.817112,
    "parent_station_id": NaN,
    "country": "RO",
    "time_zone": "Europe/Bucharest",
    "is_city": true,
    "is_main_station": false,
    "is_airport": false,
    "entur_id": NaN,
    "entur_is_enabled": false,
    "trenord_id": NaN,
    "cercanias_id": NaN,
    "cercanias_hub_id": NaN,
    "cercanias_is_enabled": false
  },
  {
    "id": 29495,
    "name": "Bârlad",
    "name_norm": "Barlad",
    "uic": NaN,
    "latitude": 46.227661,
    "longitude": 27.669227,
    "parent_station_id": NaN,
    "country": "RO",
    "time_zone": "Europe/Bucharest",
    "is_city": true,
    "is_main_station": false,
    "is_airport": false,
    "entur_id": NaN,
    "entur_is_enabled": false,
    "trenord_id": NaN,
    "cercanias_id": NaN,
    "cercanias_hub_id": NaN,
    "cercanias_is_enabled": false
  },
  {
    "id": 29496,
    "name": "Băile Herculane",
    "name_norm": "Baile Herculane",
    "uic": NaN,
    "latitude": 44.86818,
    "longitude": 22.408513,
    "parent_station_id": NaN,
    "country": "RO",
    "time_zone": "Europe/Bucharest",
    "is_city": true,
    "is_main_station": false,
    "is_airport": false,
    "entur_id": NaN,
    "entur_is_enabled": false,
    "trenord_id": NaN,
    "cercanias_id": NaN,
    "cercanias_hub_id": NaN,
    "cercanias_is_enabled": false
  },
  {
    "id": 29497,
    "name": "Caracal",
    "name_norm": "Caracal",
    "uic": NaN,
    "latitude": 44.115745,
    "longitude": 24.342475,
    "parent_station_id": NaN,
    "country": "RO",
    "time_zone": "Europe/Bucharest",
    "is_city": true,
    "is_main_station": false,
    "is_airport": false,
    "entur_id": NaN,
    "entur_is_enabled": false,
    "trenord_id": NaN,
    "cercanias_id": NaN,
    "cercanias_hub_id": NaN,
    "cercanias_is_enabled": false
  },
  {
    "id": 29498,
    "name": "Caransebeș",
    "name_norm": "Caransebes",
    "uic": NaN,
    "latitude": 45.413619,
    "longitude": 22.221864,
    "parent_station_id": NaN,
    "country": "RO",
    "time_zone": "Europe/Bucharest",
    "is_city": true,
    "is_main_station": false,
    "is_airport": false,
    "entur_id": NaN,
    "entur_is_enabled": false,
    "trenord_id": NaN,
    "cercanias_id": NaN,
    "cercanias_hub_id": NaN,
    "cercanias_is_enabled": false
  },
  {
    "id": 29499,
    "name": "Carei",
    "name_norm": "Carei",
    "uic": NaN,
    "latitude": 47.681451,
    "longitude": 22.462143,
    "parent_station_id": NaN,
    "country": "RO",
    "time_zone": "Europe/Bucharest",
    "is_city": true,
    "is_main_station": false,
    "is_airport": false,
    "entur_id": NaN,
    "entur_is_enabled": false,
    "trenord_id": NaN,
    "cercanias_id": NaN,
    "cercanias_hub_id": NaN,
    "cercanias_is_enabled": false
  },
  {
    "id": 29500,
    "name": "Cernavodă",
    "name_norm": "Cernavoda",
    "uic": NaN,
    "latitude": 44.327604,
    "longitude": 28.030603,
    "parent_station_id": NaN,
    "country": "RO",
    "time_zone": "Europe/Bucharest",
    "is_city": true,
    "is_main_station": false,
    "is_airport": false,
    "entur_id": NaN,
    "entur_is_enabled": false,
    "trenord_id": NaN,
    "cercanias_id": NaN,
    "cercanias_hub_id": NaN,
    "cercanias_is_enabled": false
  },
  {
    "id": 29501,
    "name": "Câmpia Turzii",
    "name_norm": "Campia Turzii",
    "uic": NaN,
    "latitude": 46.558649,
    "longitude": 23.870668,
    "parent_station_id": NaN,
    "country": "RO",
    "time_zone": "Europe/Bucharest",
    "is_city": true,
    "is_main_station": false,
    "is_airport": false,
    "entur_id": NaN,
    "entur_is_enabled": false,
    "trenord_id": NaN,
    "cercanias_id": NaN,
    "cercanias_hub_id": NaN,
    "cercanias_is_enabled": false
  },
  {
    "id": 29502,
    "name": "Călărași",
    "name_norm": "Calarasi",
    "uic": NaN,
    "latitude": 44.208514,
    "longitude": 27.313744,
    "parent_station_id": NaN,
    "country": "RO",
    "time_zone": "Europe/Bucharest",
    "is_city": true,
    "is_main_station": false,
    "is_airport": false,
    "entur_id": NaN,
    "entur_is_enabled": false,
    "trenord_id": NaN,
    "cercanias_id": NaN,
    "cercanias_hub_id": NaN,
    "cercanias_is_enabled": false
  },
  {
    "id": 29503,
    "name": "Dej",
    "name_norm": "Dej",
    "uic": NaN,
    "latitude": 47.141588,
    "longitude": 23.878734,
    "parent_station_id": NaN,
    "country": "RO",
    "time_zone": "Europe/Bucharest",
    "is_city": true,
    "is_main_station": false,
    "is_airport": false,
    "entur_id": NaN,
    "entur_is_enabled": false,
    "trenord_id": NaN,
    "cercanias_id": NaN,
    "cercanias_hub_id": NaN,
    "cercanias_is_enabled": false
  },
  {
    "id": 29504,
    "name": "Drobeta-Turnu Severin",
    "name_norm": "Drobeta-Turnu Severin",
    "uic": NaN,
    "latitude": 44.636923,
    "longitude": 22.659734,
    "parent_station_id": NaN,
    "country": "RO",
    "time_zone": "Europe/Bucharest",
    "is_city": true,
    "is_main_station": false,
    "is_airport": false,
    "entur_id": NaN,
    "entur_is_enabled": false,
    "trenord_id": NaN,
    "cercanias_id": NaN,
    "cercanias_hub_id": NaN,
    "cercanias_is_enabled": false
  },
  {
    "id": 29505,
    "name": "Fetești",
    "name_norm": "Fetesti",
    "uic": NaN,
    "latitude": 44.368724,
    "longitude": 27.828565,
    "parent_station_id": NaN,
    "country": "RO",
    "time_zone": "Europe/Bucharest",
    "is_city": true,
    "is_main_station": false,
    "is_airport": false,
    "entur_id": NaN,
    "entur_is_enabled": false,
    "trenord_id": NaN,
    "cercanias_id": NaN,
    "cercanias_hub_id": NaN,
    "cercanias_is_enabled": false
  },
  {
    "id": 29506,
    "name": "Filiași",
    "name_norm": "Filiasi",
    "uic": NaN,
    "latitude": 44.554523,
    "longitude": 23.520009,
    "parent_station_id": NaN,
    "country": "RO",
    "time_zone": "Europe/Bucharest",
    "is_city": true,
    "is_main_station": false,
    "is_airport": false,
    "entur_id": NaN,
    "entur_is_enabled": false,
    "trenord_id": NaN,
    "cercanias_id": NaN,
    "cercanias_hub_id": NaN,
    "cercanias_is_enabled": false
  },
  {
    "id": 29507,
    "name": "Focșani",
    "name_norm": "Focsani",
    "uic": NaN,
    "latitude": 45.696475,
    "longitude": 27.184043,
    "parent_station_id": NaN,
    "country": "RO",
    "time_zone": "Europe/Bucharest",
    "is_city": true,
    "is_main_station": false,
    "is_airport": false,
    "entur_id": NaN,
    "entur_is_enabled": false,
    "trenord_id": NaN,
    "cercanias_id": NaN,
    "cercanias_hub_id": NaN,
    "cercanias_is_enabled": false
  },
  {
    "id": 29508,
    "name": "Făgăraș",
    "name_norm": "Fagaras",
    "uic": NaN,
    "latitude": 45.84164,
    "longitude": 24.973095,
    "parent_station_id": NaN,
    "country": "RO",
    "time_zone": "Europe/Bucharest",
    "is_city": true,
    "is_main_station": false,
    "is_airport": false,
    "entur_id": NaN,
    "entur_is_enabled": false,
    "trenord_id": NaN,
    "cercanias_id": NaN,
    "cercanias_hub_id": NaN,
    "cercanias_is_enabled": false
  },
  {
    "id": 29509,
    "name": "Fălticeni",
    "name_norm": "Falticeni",
    "uic": NaN,
    "latitude": 47.461563,
    "longitude": 26.301529,
    "parent_station_id": NaN,
    "country": "RO",
    "time_zone": "Europe/Bucharest",
    "is_city": true,
    "is_main_station": false,
    "is_airport": false,
    "entur_id": NaN,
    "entur_is_enabled": false,
    "trenord_id": NaN,
    "cercanias_id": NaN,
    "cercanias_hub_id": NaN,
    "cercanias_is_enabled": false
  },
  {
    "id": 29510,
    "name": "Galați",
    "name_norm": "Galati",
    "uic": NaN,
    "latitude": 45.435321,
    "longitude": 28.007995,
    "parent_station_id": NaN,
    "country": "RO",
    "time_zone": "Europe/Bucharest",
    "is_city": true,
    "is_main_station": false,
    "is_airport": false,
    "entur_id": NaN,
    "entur_is_enabled": false,
    "trenord_id": NaN,
    "cercanias_id": NaN,
    "cercanias_hub_id": NaN,
    "cercanias_is_enabled": false
  },
  {
    "id": 29511,
    "name": "Gherla",
    "name_norm": "Gherla",
    "uic": NaN,
    "latitude": 47.031765,
    "longitude": 23.909253,
    "parent_station_id": NaN,
    "country": "RO",
    "time_zone": "Europe/Bucharest",
    "is_city": true,
    "is_main_station": false,
    "is_airport": false,
    "entur_id": NaN,
    "entur_is_enabled": false,
    "trenord_id": NaN,
    "cercanias_id": NaN,
    "cercanias_hub_id": NaN,
    "cercanias_is_enabled": false
  },
  {
    "id": 29512,
    "name": "Giurgiu",
    "name_norm": "Giurgiu",
    "uic": NaN,
    "latitude": 43.903708,
    "longitude": 25.969927,
    "parent_station_id": NaN,
    "country": "RO",
    "time_zone": "Europe/Bucharest",
    "is_city": true,
    "is_main_station": false,
    "is_airport": false,
    "entur_id": NaN,
    "entur_is_enabled": false,
    "trenord_id": NaN,
    "cercanias_id": NaN,
    "cercanias_hub_id": NaN,
    "cercanias_is_enabled": false
  },
  {
    "id": 29513,
    "name": "Găești",
    "name_norm": "Gaesti",
    "uic": NaN,
    "latitude": 44.719706,
    "longitude": 25.316214,
    "parent_station_id": NaN,
    "country": "RO",
    "time_zone": "Europe/Bucharest",
    "is_city": true,
    "is_main_station": false,
    "is_airport": false,
    "entur_id": NaN,
    "entur_is_enabled": false,
    "trenord_id": NaN,
    "cercanias_id": NaN,
    "cercanias_hub_id": NaN,
    "cercanias_is_enabled": false
  },
  {
    "id": 29514,
    "name": "Huedin",
    "name_norm": "Huedin",
    "uic": NaN,
    "latitude": 46.862343,
    "longitude": 23.021822,
    "parent_station_id": NaN,
    "country": "RO",
    "time_zone": "Europe/Bucharest",
    "is_city": true,
    "is_main_station": false,
    "is_airport": false,
    "entur_id": NaN,
    "entur_is_enabled": false,
    "trenord_id": NaN,
    "cercanias_id": NaN,
    "cercanias_hub_id": NaN,
    "cercanias_is_enabled": false
  },
  {
    "id": 29515,
    "name": "Hunedoara",
    "name_norm": "Hunedoara",
    "uic": NaN,
    "latitude": 45.767813,
    "longitude": 22.907233,
    "parent_station_id": NaN,
    "country": "RO",
    "time_zone": "Europe/Bucharest",
    "is_city": true,
    "is_main_station": false,
    "is_airport": false,
    "entur_id": NaN,
    "entur_is_enabled": false,
    "trenord_id": NaN,
    "cercanias_id": NaN,
    "cercanias_hub_id": NaN,
    "cercanias_is_enabled": false
  },
  {
    "id": 29516,
    "name": "Iași",
    "name_norm": "Iasi",
    "uic": NaN,
    "latitude": 47.158455,
    "longitude": 27.601442,
    "parent_station_id": NaN,
    "country": "RO",
    "time_zone": "Europe/Bucharest",
    "is_city": true,
    "is_main_station": false,
    "is_airport": false,
    "entur_id": NaN,
    "entur_is_enabled": false,
    "trenord_id": NaN,
    "cercanias_id": NaN,
    "cercanias_hub_id": NaN,
    "cercanias_is_enabled": false
  },
  {
    "id": 29517,
    "name": "Iernut",
    "name_norm": "Iernut",
    "uic": NaN,
    "latitude": 46.45076,
    "longitude": 24.229015,
    "parent_station_id": NaN,
    "country": "RO",
    "time_zone": "Europe/Bucharest",
    "is_city": true,
    "is_main_station": false,
    "is_airport": false,
    "entur_id": NaN,
    "entur_is_enabled": false,
    "trenord_id": NaN,
    "cercanias_id": NaN,
    "cercanias_hub_id": NaN,
    "cercanias_is_enabled": false
  },
  {
    "id": 29518,
    "name": "Lipova",
    "name_norm": "Lipova",
    "uic": NaN,
    "latitude": 46.088717,
    "longitude": 21.695051,
    "parent_station_id": NaN,
    "country": "RO",
    "time_zone": "Europe/Bucharest",
    "is_city": true,
    "is_main_station": false,
    "is_airport": false,
    "entur_id": NaN,
    "entur_is_enabled": false,
    "trenord_id": NaN,
    "cercanias_id": NaN,
    "cercanias_hub_id": NaN,
    "cercanias_is_enabled": false
  },
  {
    "id": 29519,
    "name": "Luduș",
    "name_norm": "Ludus",
    "uic": NaN,
    "latitude": 46.476045,
    "longitude": 24.093392,
    "parent_station_id": NaN,
    "country": "RO",
    "time_zone": "Europe/Bucharest",
    "is_city": true,
    "is_main_station": false,
    "is_airport": false,
    "entur_id": NaN,
    "entur_is_enabled": false,
    "trenord_id": NaN,
    "cercanias_id": NaN,
    "cercanias_hub_id": NaN,
    "cercanias_is_enabled": false
  },
  {
    "id": 29520,
    "name": "Lugoj",
    "name_norm": "Lugoj",
    "uic": NaN,
    "latitude": 45.69099,
    "longitude": 21.903461,
    "parent_station_id": NaN,
    "country": "RO",
    "time_zone": "Europe/Bucharest",
    "is_city": true,
    "is_main_station": false,
    "is_airport": false,
    "entur_id": NaN,
    "entur_is_enabled": false,
    "trenord_id": NaN,
    "cercanias_id": NaN,
    "cercanias_hub_id": NaN,
    "cercanias_is_enabled": false
  },
  {
    "id": 29521,
    "name": "Medgidia",
    "name_norm": "Medgidia",
    "uic": NaN,
    "latitude": 44.241627,
    "longitude": 28.277734,
    "parent_station_id": NaN,
    "country": "RO",
    "time_zone": "Europe/Bucharest",
    "is_city": true,
    "is_main_station": false,
    "is_airport": false,
    "entur_id": NaN,
    "entur_is_enabled": false,
    "trenord_id": NaN,
    "cercanias_id": NaN,
    "cercanias_hub_id": NaN,
    "cercanias_is_enabled": false
  },
  {
    "id": 29522,
    "name": "Miercurea Ciuc",
    "name_norm": "Miercurea Ciuc",
    "uic": NaN,
    "latitude": 46.369557,
    "longitude": 25.795366,
    "parent_station_id": NaN,
    "country": "RO",
    "time_zone": "Europe/Bucharest",
    "is_city": true,
    "is_main_station": false,
    "is_airport": false,
    "entur_id": NaN,
    "entur_is_enabled": false,
    "trenord_id": NaN,
    "cercanias_id": NaN,
    "cercanias_hub_id": NaN,
    "cercanias_is_enabled": false
  },
  {
    "id": 29523,
    "name": "Odorheiu Secuiesc",
    "name_norm": "Odorheiu Secuiesc",
    "uic": NaN,
    "latitude": 46.305,
    "longitude": 25.292648,
    "parent_station_id": NaN,
    "country": "RO",
    "time_zone": "Europe/Bucharest",
    "is_city": true,
    "is_main_station": false,
    "is_airport": false,
    "entur_id": NaN,
    "entur_is_enabled": false,
    "trenord_id": NaN,
    "cercanias_id": NaN,
    "cercanias_hub_id": NaN,
    "cercanias_is_enabled": false
  },
  {
    "id": 29524,
    "name": "Onești",
    "name_norm": "Onesti",
    "uic": NaN,
    "latitude": 46.264701,
    "longitude": 26.782587,
    "parent_station_id": NaN,
    "country": "RO",
    "time_zone": "Europe/Bucharest",
    "is_city": true,
    "is_main_station": false,
    "is_airport": false,
    "entur_id": NaN,
    "entur_is_enabled": false,
    "trenord_id": NaN,
    "cercanias_id": NaN,
    "cercanias_hub_id": NaN,
    "cercanias_is_enabled": false
  },
  {
    "id": 29525,
    "name": "Orăștie",
    "name_norm": "Orastie",
    "uic": NaN,
    "latitude": 45.845125,
    "longitude": 23.201927,
    "parent_station_id": NaN,
    "country": "RO",
    "time_zone": "Europe/Bucharest",
    "is_city": true,
    "is_main_station": false,
    "is_airport": false,
    "entur_id": NaN,
    "entur_is_enabled": false,
    "trenord_id": NaN,
    "cercanias_id": NaN,
    "cercanias_hub_id": NaN,
    "cercanias_is_enabled": false
  },
  {
    "id": 29526,
    "name": "Orșova",
    "name_norm": "Orsova",
    "uic": NaN,
    "latitude": 44.728462,
    "longitude": 22.394326,
    "parent_station_id": NaN,
    "country": "RO",
    "time_zone": "Europe/Bucharest",
    "is_city": true,
    "is_main_station": false,
    "is_airport": false,
    "entur_id": NaN,
    "entur_is_enabled": false,
    "trenord_id": NaN,
    "cercanias_id": NaN,
    "cercanias_hub_id": NaN,
    "cercanias_is_enabled": false
  },
  {
    "id": 29527,
    "name": "Petroșani",
    "name_norm": "Petrosani",
    "uic": NaN,
    "latitude": 45.408895,
    "longitude": 23.375402,
    "parent_station_id": NaN,
    "country": "RO",
    "time_zone": "Europe/Bucharest",
    "is_city": true,
    "is_main_station": false,
    "is_airport": false,
    "entur_id": NaN,
    "entur_is_enabled": false,
    "trenord_id": NaN,
    "cercanias_id": NaN,
    "cercanias_hub_id": NaN,
    "cercanias_is_enabled": false
  },
  {
    "id": 29528,
    "name": "Piatra Neamț",
    "name_norm": "Piatra Neamt",
    "uic": NaN,
    "latitude": 46.929962,
    "longitude": 26.377979,
    "parent_station_id": NaN,
    "country": "RO",
    "time_zone": "Europe/Bucharest",
    "is_city": true,
    "is_main_station": false,
    "is_airport": false,
    "entur_id": NaN,
    "entur_is_enabled": false,
    "trenord_id": NaN,
    "cercanias_id": NaN,
    "cercanias_hub_id": NaN,
    "cercanias_is_enabled": false
  },
  {
    "id": 29529,
    "name": "Pitești",
    "name_norm": "Pitesti",
    "uic": NaN,
    "latitude": 44.85648,
    "longitude": 24.869182,
    "parent_station_id": NaN,
    "country": "RO",
    "time_zone": "Europe/Bucharest",
    "is_city": true,
    "is_main_station": false,
    "is_airport": false,
    "entur_id": NaN,
    "entur_is_enabled": false,
    "trenord_id": NaN,
    "cercanias_id": NaN,
    "cercanias_hub_id": NaN,
    "cercanias_is_enabled": false
  },
  {
    "id": 29530,
    "name": "Ploiești",
    "name_norm": "Ploiesti",
    "uic": NaN,
    "latitude": 44.936664,
    "longitude": 26.012862,
    "parent_station_id": NaN,
    "country": "RO",
    "time_zone": "Europe/Bucharest",
    "is_city": true,
    "is_main_station": false,
    "is_airport": false,
    "entur_id": NaN,
    "entur_is_enabled": false,
    "trenord_id": NaN,
    "cercanias_id": NaN,
    "cercanias_hub_id": NaN,
    "cercanias_is_enabled": false
  },
  {
    "id": 29531,
    "name": "Reghin",
    "name_norm": "Reghin",
    "uic": NaN,
    "latitude": 46.771093,
    "longitude": 24.700762,
    "parent_station_id": NaN,
    "country": "RO",
    "time_zone": "Europe/Bucharest",
    "is_city": true,
    "is_main_station": false,
    "is_airport": false,
    "entur_id": NaN,
    "entur_is_enabled": false,
    "trenord_id": NaN,
    "cercanias_id": NaN,
    "cercanias_hub_id": NaN,
    "cercanias_is_enabled": false
  },
  {
    "id": 29532,
    "name": "Reșița",
    "name_norm": "Resita",
    "uic": NaN,
    "latitude": 45.30497,
    "longitude": 21.882103,
    "parent_station_id": NaN,
    "country": "RO",
    "time_zone": "Europe/Bucharest",
    "is_city": true,
    "is_main_station": false,
    "is_airport": false,
    "entur_id": NaN,
    "entur_is_enabled": false,
    "trenord_id": NaN,
    "cercanias_id": NaN,
    "cercanias_hub_id": NaN,
    "cercanias_is_enabled": false
  },
  {
    "id": 29533,
    "name": "Roman",
    "name_norm": "Roman",
    "uic": NaN,
    "latitude": 46.934875,
    "longitude": 26.920658,
    "parent_station_id": NaN,
    "country": "RO",
    "time_zone": "Europe/Bucharest",
    "is_city": true,
    "is_main_station": false,
    "is_airport": false,
    "entur_id": NaN,
    "entur_is_enabled": false,
    "trenord_id": NaN,
    "cercanias_id": NaN,
    "cercanias_hub_id": NaN,
    "cercanias_is_enabled": false
  },
  {
    "id": 29534,
    "name": "Rovinari",
    "name_norm": "Rovinari",
    "uic": NaN,
    "latitude": 44.900003,
    "longitude": 23.154346,
    "parent_station_id": NaN,
    "country": "RO",
    "time_zone": "Europe/Bucharest",
    "is_city": true,
    "is_main_station": false,
    "is_airport": false,
    "entur_id": NaN,
    "entur_is_enabled": false,
    "trenord_id": NaN,
    "cercanias_id": NaN,
    "cercanias_hub_id": NaN,
    "cercanias_is_enabled": false
  },
  {
    "id": 29535,
    "name": "Roșiorii de Vede",
    "name_norm": "Rosiorii de Vede",
    "uic": NaN,
    "latitude": 44.108557,
    "longitude": 24.994978,
    "parent_station_id": NaN,
    "country": "RO",
    "time_zone": "Europe/Bucharest",
    "is_city": true,
    "is_main_station": false,
    "is_airport": false,
    "entur_id": NaN,
    "entur_is_enabled": false,
    "trenord_id": NaN,
    "cercanias_id": NaN,
    "cercanias_hub_id": NaN,
    "cercanias_is_enabled": false
  },
  {
    "id": 29536,
    "name": "Râmnicu Sărat",
    "name_norm": "Ramnicu Sarat",
    "uic": NaN,
    "latitude": 45.386464,
    "longitude": 27.046222,
    "parent_station_id": NaN,
    "country": "RO",
    "time_zone": "Europe/Bucharest",
    "is_city": true,
    "is_main_station": false,
    "is_airport": false,
    "entur_id": NaN,
    "entur_is_enabled": false,
    "trenord_id": NaN,
    "cercanias_id": NaN,
    "cercanias_hub_id": NaN,
    "cercanias_is_enabled": false
  },
  {
    "id": 29537,
    "name": "Râmnicu Vâlcea",
    "name_norm": "Ramnicu Valcea",
    "uic": NaN,
    "latitude": 45.099675,
    "longitude": 24.369318,
    "parent_station_id": NaN,
    "country": "RO",
    "time_zone": "Europe/Bucharest",
    "is_city": true,
    "is_main_station": false,
    "is_airport": false,
    "entur_id": NaN,
    "entur_is_enabled": false,
    "trenord_id": NaN,
    "cercanias_id": NaN,
    "cercanias_hub_id": NaN,
    "cercanias_is_enabled": false
  },
  {
    "id": 29538,
    "name": "Salonta",
    "name_norm": "Salonta",
    "uic": NaN,
    "latitude": 46.805288,
    "longitude": 21.648983,
    "parent_station_id": NaN,
    "country": "RO",
    "time_zone": "Europe/Bucharest",
    "is_city": true,
    "is_main_station": false,
    "is_airport": false,
    "entur_id": NaN,
    "entur_is_enabled": false,
    "trenord_id": NaN,
    "cercanias_id": NaN,
    "cercanias_hub_id": NaN,
    "cercanias_is_enabled": false
  },
  {
    "id": 29539,
    "name": "Satu Mare",
    "name_norm": "Satu Mare",
    "uic": NaN,
    "latitude": 47.80167,
    "longitude": 22.857593,
    "parent_station_id": NaN,
    "country": "RO",
    "time_zone": "Europe/Bucharest",
    "is_city": true,
    "is_main_station": false,
    "is_airport": false,
    "entur_id": NaN,
    "entur_is_enabled": false,
    "trenord_id": NaN,
    "cercanias_id": NaN,
    "cercanias_hub_id": NaN,
    "cercanias_is_enabled": false
  },
  {
    "id": 29540,
    "name": "Sebeș",
    "name_norm": "Sebes",
    "uic": NaN,
    "latitude": 45.959559,
    "longitude": 23.566376,
    "parent_station_id": NaN,
    "country": "RO",
    "time_zone": "Europe/Bucharest",
    "is_city": true,
    "is_main_station": false,
    "is_airport": false,
    "entur_id": NaN,
    "entur_is_enabled": false,
    "trenord_id": NaN,
    "cercanias_id": NaN,
    "cercanias_hub_id": NaN,
    "cercanias_is_enabled": false
  },
  {
    "id": 29541,
    "name": "Sfântu Gheorghe",
    "name_norm": "Sfantu Gheorghe",
    "uic": NaN,
    "latitude": 45.860938,
    "longitude": 25.78858,
    "parent_station_id": NaN,
    "country": "RO",
    "time_zone": "Europe/Bucharest",
    "is_city": true,
    "is_main_station": false,
    "is_airport": false,
    "entur_id": NaN,
    "entur_is_enabled": false,
    "trenord_id": NaN,
    "cercanias_id": NaN,
    "cercanias_hub_id": NaN,
    "cercanias_is_enabled": false
  },
  {
    "id": 29542,
    "name": "Sighetu Marmației",
    "name_norm": "Sighetu Marmatiei",
    "uic": NaN,
    "latitude": 47.927707,
    "longitude": 23.897651,
    "parent_station_id": NaN,
    "country": "RO",
    "time_zone": "Europe/Bucharest",
    "is_city": true,
    "is_main_station": false,
    "is_airport": false,
    "entur_id": NaN,
    "entur_is_enabled": false,
    "trenord_id": NaN,
    "cercanias_id": NaN,
    "cercanias_hub_id": NaN,
    "cercanias_is_enabled": false
  },
  {
    "id": 29543,
    "name": "Sinaia",
    "name_norm": "Sinaia",
    "uic": NaN,
    "latitude": 45.331043,
    "longitude": 25.56235,
    "parent_station_id": NaN,
    "country": "RO",
    "time_zone": "Europe/Bucharest",
    "is_city": true,
    "is_main_station": false,
    "is_airport": false,
    "entur_id": NaN,
    "entur_is_enabled": false,
    "trenord_id": NaN,
    "cercanias_id": NaN,
    "cercanias_hub_id": NaN,
    "cercanias_is_enabled": false
  },
  {
    "id": 29544,
    "name": "Slatina (RO)",
    "name_norm": "Slatina (RO)",
    "uic": NaN,
    "latitude": 44.430168,
    "longitude": 24.37169,
    "parent_station_id": NaN,
    "country": "RO",
    "time_zone": "Europe/Bucharest",
    "is_city": true,
    "is_main_station": false,
    "is_airport": false,
    "entur_id": NaN,
    "entur_is_enabled": false,
    "trenord_id": NaN,
    "cercanias_id": NaN,
    "cercanias_hub_id": NaN,
    "cercanias_is_enabled": false
  },
  {
    "id": 29545,
    "name": "Slobozia",
    "name_norm": "Slobozia",
    "uic": NaN,
    "latitude": 44.562889,
    "longitude": 27.361366,
    "parent_station_id": NaN,
    "country": "RO",
    "time_zone": "Europe/Bucharest",
    "is_city": true,
    "is_main_station": false,
    "is_airport": false,
    "entur_id": NaN,
    "entur_is_enabled": false,
    "trenord_id": NaN,
    "cercanias_id": NaN,
    "cercanias_hub_id": NaN,
    "cercanias_is_enabled": false
  },
  {
    "id": 29546,
    "name": "Suceava",
    "name_norm": "Suceava",
    "uic": NaN,
    "latitude": 47.663452,
    "longitude": 26.27323,
    "parent_station_id": NaN,
    "country": "RO",
    "time_zone": "Europe/Bucharest",
    "is_city": true,
    "is_main_station": false,
    "is_airport": false,
    "entur_id": NaN,
    "entur_is_enabled": false,
    "trenord_id": NaN,
    "cercanias_id": NaN,
    "cercanias_hub_id": NaN,
    "cercanias_is_enabled": false
  },
  {
    "id": 29547,
    "name": "Tecuci",
    "name_norm": "Tecuci",
    "uic": NaN,
    "latitude": 45.849092,
    "longitude": 27.424127,
    "parent_station_id": NaN,
    "country": "RO",
    "time_zone": "Europe/Bucharest",
    "is_city": true,
    "is_main_station": false,
    "is_airport": false,
    "entur_id": NaN,
    "entur_is_enabled": false,
    "trenord_id": NaN,
    "cercanias_id": NaN,
    "cercanias_hub_id": NaN,
    "cercanias_is_enabled": false
  },
  {
    "id": 29548,
    "name": "Teiuș",
    "name_norm": "Teius",
    "uic": NaN,
    "latitude": 46.202417,
    "longitude": 23.678038,
    "parent_station_id": NaN,
    "country": "RO",
    "time_zone": "Europe/Bucharest",
    "is_city": true,
    "is_main_station": false,
    "is_airport": false,
    "entur_id": NaN,
    "entur_is_enabled": false,
    "trenord_id": NaN,
    "cercanias_id": NaN,
    "cercanias_hub_id": NaN,
    "cercanias_is_enabled": false
  },
  {
    "id": 29549,
    "name": "Timișoara",
    "name_norm": "Timisoara",
    "uic": NaN,
    "latitude": 45.748872,
    "longitude": 21.208679,
    "parent_station_id": NaN,
    "country": "RO",
    "time_zone": "Europe/Bucharest",
    "is_city": true,
    "is_main_station": false,
    "is_airport": false,
    "entur_id": NaN,
    "entur_is_enabled": false,
    "trenord_id": NaN,
    "cercanias_id": NaN,
    "cercanias_hub_id": NaN,
    "cercanias_is_enabled": false
  },
  {
    "id": 29550,
    "name": "Tulcea",
    "name_norm": "Tulcea",
    "uic": NaN,
    "latitude": 45.171617,
    "longitude": 28.791444,
    "parent_station_id": NaN,
    "country": "RO",
    "time_zone": "Europe/Bucharest",
    "is_city": true,
    "is_main_station": false,
    "is_airport": false,
    "entur_id": NaN,
    "entur_is_enabled": false,
    "trenord_id": NaN,
    "cercanias_id": NaN,
    "cercanias_hub_id": NaN,
    "cercanias_is_enabled": false
  },
  {
    "id": 29551,
    "name": "Turda",
    "name_norm": "Turda",
    "uic": NaN,
    "latitude": 46.564676,
    "longitude": 23.797106,
    "parent_station_id": NaN,
    "country": "RO",
    "time_zone": "Europe/Bucharest",
    "is_city": true,
    "is_main_station": false,
    "is_airport": false,
    "entur_id": NaN,
    "entur_is_enabled": false,
    "trenord_id": NaN,
    "cercanias_id": NaN,
    "cercanias_hub_id": NaN,
    "cercanias_is_enabled": false
  },
  {
    "id": 29552,
    "name": "Târgoviște",
    "name_norm": "Targoviste",
    "uic": NaN,
    "latitude": 44.911822,
    "longitude": 25.455827,
    "parent_station_id": NaN,
    "country": "RO",
    "time_zone": "Europe/Bucharest",
    "is_city": true,
    "is_main_station": false,
    "is_airport": false,
    "entur_id": NaN,
    "entur_is_enabled": false,
    "trenord_id": NaN,
    "cercanias_id": NaN,
    "cercanias_hub_id": NaN,
    "cercanias_is_enabled": false
  },
  {
    "id": 29553,
    "name": "Târgu Jiu",
    "name_norm": "Targu Jiu",
    "uic": NaN,
    "latitude": 45.031428,
    "longitude": 23.268939,
    "parent_station_id": NaN,
    "country": "RO",
    "time_zone": "Europe/Bucharest",
    "is_city": true,
    "is_main_station": false,
    "is_airport": false,
    "entur_id": NaN,
    "entur_is_enabled": false,
    "trenord_id": NaN,
    "cercanias_id": NaN,
    "cercanias_hub_id": NaN,
    "cercanias_is_enabled": false
  },
  {
    "id": 29554,
    "name": "Târgu Mureș",
    "name_norm": "Targu Mures",
    "uic": NaN,
    "latitude": 46.538586,
    "longitude": 24.551439,
    "parent_station_id": NaN,
    "country": "RO",
    "time_zone": "Europe/Bucharest",
    "is_city": true,
    "is_main_station": false,
    "is_airport": false,
    "entur_id": NaN,
    "entur_is_enabled": false,
    "trenord_id": NaN,
    "cercanias_id": NaN,
    "cercanias_hub_id": NaN,
    "cercanias_is_enabled": false
  },
  {
    "id": 29555,
    "name": "Târgu Neamț",
    "name_norm": "Targu Neamt",
    "uic": NaN,
    "latitude": 47.209788,
    "longitude": 26.375731,
    "parent_station_id": NaN,
    "country": "RO",
    "time_zone": "Europe/Bucharest",
    "is_city": true,
    "is_main_station": false,
    "is_airport": false,
    "entur_id": NaN,
    "entur_is_enabled": false,
    "trenord_id": NaN,
    "cercanias_id": NaN,
    "cercanias_hub_id": NaN,
    "cercanias_is_enabled": false
  },
  {
    "id": 29556,
    "name": "Târgu Secuiesc",
    "name_norm": "Targu Secuiesc",
    "uic": NaN,
    "latitude": 46.0006,
    "longitude": 26.134579,
    "parent_station_id": NaN,
    "country": "RO",
    "time_zone": "Europe/Bucharest",
    "is_city": true,
    "is_main_station": false,
    "is_airport": false,
    "entur_id": NaN,
    "entur_is_enabled": false,
    "trenord_id": NaN,
    "cercanias_id": NaN,
    "cercanias_hub_id": NaN,
    "cercanias_is_enabled": false
  },
  {
    "id": 29557,
    "name": "Tălmaciu",
    "name_norm": "Talmaciu",
    "uic": NaN,
    "latitude": 45.669659,
    "longitude": 24.262641,
    "parent_station_id": NaN,
    "country": "RO",
    "time_zone": "Europe/Bucharest",
    "is_city": true,
    "is_main_station": false,
    "is_airport": false,
    "entur_id": NaN,
    "entur_is_enabled": false,
    "trenord_id": NaN,
    "cercanias_id": NaN,
    "cercanias_hub_id": NaN,
    "cercanias_is_enabled": false
  },
  {
    "id": 29558,
    "name": "Vaslui",
    "name_norm": "Vaslui",
    "uic": NaN,
    "latitude": 46.640692,
    "longitude": 27.727647,
    "parent_station_id": NaN,
    "country": "RO",
    "time_zone": "Europe/Bucharest",
    "is_city": true,
    "is_main_station": false,
    "is_airport": false,
    "entur_id": NaN,
    "entur_is_enabled": false,
    "trenord_id": NaN,
    "cercanias_id": NaN,
    "cercanias_hub_id": NaN,
    "cercanias_is_enabled": false
  },
  {
    "id": 29559,
    "name": "Vatra Dornei",
    "name_norm": "Vatra Dornei",
    "uic": NaN,
    "latitude": 47.344758,
    "longitude": 25.352104,
    "parent_station_id": NaN,
    "country": "RO",
    "time_zone": "Europe/Bucharest",
    "is_city": true,
    "is_main_station": false,
    "is_airport": false,
    "entur_id": NaN,
    "entur_is_enabled": false,
    "trenord_id": NaN,
    "cercanias_id": NaN,
    "cercanias_hub_id": NaN,
    "cercanias_is_enabled": false
  },
  {
    "id": 29560,
    "name": "Zalău",
    "name_norm": "Zalau",
    "uic": NaN,
    "latitude": 47.185456,
    "longitude": 23.057332,
    "parent_station_id": NaN,
    "country": "RO",
    "time_zone": "Europe/Bucharest",
    "is_city": true,
    "is_main_station": false,
    "is_airport": false,
    "entur_id": NaN,
    "entur_is_enabled": false,
    "trenord_id": NaN,
    "cercanias_id": NaN,
    "cercanias_hub_id": NaN,
    "cercanias_is_enabled": false
  },
  {
    "id": 29561,
    "name": "Țăndărei",
    "name_norm": "Tandarei",
    "uic": NaN,
    "latitude": 44.648872,
    "longitude": 27.643867,
    "parent_station_id": NaN,
    "country": "RO",
    "time_zone": "Europe/Bucharest",
    "is_city": true,
    "is_main_station": false,
    "is_airport": false,
    "entur_id": NaN,
    "entur_is_enabled": false,
    "trenord_id": NaN,
    "cercanias_id": NaN,
    "cercanias_hub_id": NaN,
    "cercanias_is_enabled": false
  },
  {
    "id": 32532,
    "name": "Buhuşi",
    "name_norm": "Buhusi",
    "uic": NaN,
    "latitude": 46.724227,
    "longitude": 26.696173,
    "parent_station_id": NaN,
    "country": "RO",
    "time_zone": "Europe/Bucharest",
    "is_city": true,
    "is_main_station": false,
    "is_airport": false,
    "entur_id": NaN,
    "entur_is_enabled": false,
    "trenord_id": NaN,
    "cercanias_id": NaN,
    "cercanias_hub_id": NaN,
    "cercanias_is_enabled": false
  },
  {
    "id": 32533,
    "name": "Câmpina",
    "name_norm": "Campina",
    "uic": NaN,
    "latitude": 45.136996,
    "longitude": 25.742141,
    "parent_station_id": NaN,
    "country": "RO",
    "time_zone": "Europe/Bucharest",
    "is_city": true,
    "is_main_station": false,
    "is_airport": false,
    "entur_id": NaN,
    "entur_is_enabled": false,
    "trenord_id": NaN,
    "cercanias_id": NaN,
    "cercanias_hub_id": NaN,
    "cercanias_is_enabled": false
  },
  {
    "id": 32534,
    "name": "Corabia",
    "name_norm": "Corabia",
    "uic": NaN,
    "latitude": 43.777649,
    "longitude": 24.512909,
    "parent_station_id": NaN,
    "country": "RO",
    "time_zone": "Europe/Bucharest",
    "is_city": true,
    "is_main_station": false,
    "is_airport": false,
    "entur_id": NaN,
    "entur_is_enabled": false,
    "trenord_id": NaN,
    "cercanias_id": NaN,
    "cercanias_hub_id": NaN,
    "cercanias_is_enabled": false
  },
  {
    "id": 32535,
    "name": "Făget",
    "name_norm": "Faget",
    "uic": NaN,
    "latitude": 45.852796,
    "longitude": 22.172906,
    "parent_station_id": NaN,
    "country": "RO",
    "time_zone": "Europe/Bucharest",
    "is_city": true,
    "is_main_station": false,
    "is_airport": false,
    "entur_id": NaN,
    "entur_is_enabled": false,
    "trenord_id": NaN,
    "cercanias_id": NaN,
    "cercanias_hub_id": NaN,
    "cercanias_is_enabled": false
  },
  {
    "id": 32536,
    "name": "Gura Humorului",
    "name_norm": "Gura Humorului",
    "uic": NaN,
    "latitude": 47.5522,
    "longitude": 25.884248,
    "parent_station_id": NaN,
    "country": "RO",
    "time_zone": "Europe/Bucharest",
    "is_city": true,
    "is_main_station": false,
    "is_airport": false,
    "entur_id": NaN,
    "entur_is_enabled": false,
    "trenord_id": NaN,
    "cercanias_id": NaN,
    "cercanias_hub_id": NaN,
    "cercanias_is_enabled": false
  },
  {
    "id": 32537,
    "name": "Hârlău",
    "name_norm": "Harlau",
    "uic": NaN,
    "latitude": 47.428427,
    "longitude": 26.909125,
    "parent_station_id": NaN,
    "country": "RO",
    "time_zone": "Europe/Bucharest",
    "is_city": true,
    "is_main_station": false,
    "is_airport": false,
    "entur_id": NaN,
    "entur_is_enabled": false,
    "trenord_id": NaN,
    "cercanias_id": NaN,
    "cercanias_hub_id": NaN,
    "cercanias_is_enabled": false
  },
  {
    "id": 32538,
    "name": "Hațeg",
    "name_norm": "Hateg",
    "uic": NaN,
    "latitude": 45.606884,
    "longitude": 22.949363,
    "parent_station_id": NaN,
    "country": "RO",
    "time_zone": "Europe/Bucharest",
    "is_city": true,
    "is_main_station": false,
    "is_airport": false,
    "entur_id": NaN,
    "entur_is_enabled": false,
    "trenord_id": NaN,
    "cercanias_id": NaN,
    "cercanias_hub_id": NaN,
    "cercanias_is_enabled": false
  },
  {
    "id": 32539,
    "name": "Huşi",
    "name_norm": "Husi",
    "uic": NaN,
    "latitude": 46.67361,
    "longitude": 28.05944,
    "parent_station_id": NaN,
    "country": "RO",
    "time_zone": "Europe/Bucharest",
    "is_city": true,
    "is_main_station": false,
    "is_airport": false,
    "entur_id": NaN,
    "entur_is_enabled": false,
    "trenord_id": NaN,
    "cercanias_id": NaN,
    "cercanias_hub_id": NaN,
    "cercanias_is_enabled": false
  },
  {
    "id": 32540,
    "name": "Mizil",
    "name_norm": "Mizil",
    "uic": NaN,
    "latitude": 44.998164,
    "longitude": 26.441765,
    "parent_station_id": NaN,
    "country": "RO",
    "time_zone": "Europe/Bucharest",
    "is_city": true,
    "is_main_station": false,
    "is_airport": false,
    "entur_id": NaN,
    "entur_is_enabled": false,
    "trenord_id": NaN,
    "cercanias_id": NaN,
    "cercanias_hub_id": NaN,
    "cercanias_is_enabled": false
  },
  {
    "id": 32541,
    "name": "Oltenița",
    "name_norm": "Oltenita",
    "uic": NaN,
    "latitude": 44.085466,
    "longitude": 26.637483,
    "parent_station_id": NaN,
    "country": "RO",
    "time_zone": "Europe/Bucharest",
    "is_city": true,
    "is_main_station": false,
    "is_airport": false,
    "entur_id": NaN,
    "entur_is_enabled": false,
    "trenord_id": NaN,
    "cercanias_id": NaN,
    "cercanias_hub_id": NaN,
    "cercanias_is_enabled": false
  },
  {
    "id": 32542,
    "name": "Pascani",
    "name_norm": "Pascani",
    "uic": NaN,
    "latitude": 47.254761,
    "longitude": 26.722349,
    "parent_station_id": NaN,
    "country": "RO",
    "time_zone": "Europe/Bucharest",
    "is_city": true,
    "is_main_station": false,
    "is_airport": false,
    "entur_id": NaN,
    "entur_is_enabled": false,
    "trenord_id": NaN,
    "cercanias_id": NaN,
    "cercanias_hub_id": NaN,
    "cercanias_is_enabled": false
  },
  {
    "id": 32543,
    "name": "Strehaia",
    "name_norm": "Strehaia",
    "uic": NaN,
    "latitude": 44.624243,
    "longitude": 23.191842,
    "parent_station_id": NaN,
    "country": "RO",
    "time_zone": "Europe/Bucharest",
    "is_city": true,
    "is_main_station": false,
    "is_airport": false,
    "entur_id": NaN,
    "entur_is_enabled": false,
    "trenord_id": NaN,
    "cercanias_id": NaN,
    "cercanias_hub_id": NaN,
    "cercanias_is_enabled": false
  },
  {
    "id": 32544,
    "name": "Târgu Frumos",
    "name_norm": "Targu Frumos",
    "uic": NaN,
    "latitude": 47.20854,
    "longitude": 27.008356,
    "parent_station_id": NaN,
    "country": "RO",
    "time_zone": "Europe/Bucharest",
    "is_city": true,
    "is_main_station": false,
    "is_airport": false,
    "entur_id": NaN,
    "entur_is_enabled": false,
    "trenord_id": NaN,
    "cercanias_id": NaN,
    "cercanias_hub_id": NaN,
    "cercanias_is_enabled": false
  },
  {
    "id": 32545,
    "name": "Turnu Magurele",
    "name_norm": "Turnu Magurele",
    "uic": NaN,
    "latitude": 43.757912,
    "longitude": 24.86595,
    "parent_station_id": NaN,
    "country": "RO",
    "time_zone": "Europe/Bucharest",
    "is_city": true,
    "is_main_station": false,
    "is_airport": false,
    "entur_id": NaN,
    "entur_is_enabled": false,
    "trenord_id": NaN,
    "cercanias_id": NaN,
    "cercanias_hub_id": NaN,
    "cercanias_is_enabled": false
  },
  {
    "id": 32546,
    "name": "Zimnicea",
    "name_norm": "Zimnicea",
    "uic": NaN,
    "latitude": 43.656971,
    "longitude": 25.369699,
    "parent_station_id": NaN,
    "country": "RO",
    "time_zone": "Europe/Bucharest",
    "is_city": true,
    "is_main_station": false,
    "is_airport": false,
    "entur_id": NaN,
    "entur_is_enabled": false,
    "trenord_id": NaN,
    "cercanias_id": NaN,
    "cercanias_hub_id": NaN,
    "cercanias_is_enabled": false
  },
  {
    "id": 32619,
    "name": "Călan",
    "name_norm": "Calan",
    "uic": NaN,
    "latitude": 45.740307,
    "longitude": 23.001794,
    "parent_station_id": NaN,
    "country": "RO",
    "time_zone": "Europe/Bucharest",
    "is_city": true,
    "is_main_station": false,
    "is_airport": false,
    "entur_id": NaN,
    "entur_is_enabled": false,
    "trenord_id": NaN,
    "cercanias_id": NaN,
    "cercanias_hub_id": NaN,
    "cercanias_is_enabled": false
  },
  {
    "id": 34693,
    "name": "Nădlac",
    "name_norm": "Nadlac",
    "uic": NaN,
    "latitude": 46.169949,
    "longitude": 20.760813,
    "parent_station_id": NaN,
    "country": "RO",
    "time_zone": "Europe/Bucharest",
    "is_city": true,
    "is_main_station": false,
    "is_airport": false,
    "entur_id": NaN,
    "entur_is_enabled": false,
    "trenord_id": NaN,
    "cercanias_id": NaN,
    "cercanias_hub_id": NaN,
    "cercanias_is_enabled": false
  },
  {
    "id": 35172,
    "name": "Panciu",
    "name_norm": "Panciu",
    "uic": NaN,
    "latitude": 45.907685,
    "longitude": 27.088247,
    "parent_station_id": NaN,
    "country": "RO",
    "time_zone": "Europe/Bucharest",
    "is_city": true,
    "is_main_station": false,
    "is_airport": false,
    "entur_id": NaN,
    "entur_is_enabled": false,
    "trenord_id": NaN,
    "cercanias_id": NaN,
    "cercanias_hub_id": NaN,
    "cercanias_is_enabled": false
  },
  {
    "id": 35201,
    "name": "Bucharest Henri Coandă Airport",
    "name_norm": "Bucharest Henri Coanda Airport",
    "uic": NaN,
    "latitude": 44.570516,
    "longitude": 26.084533,
    "parent_station_id": NaN,
    "country": "RO",
    "time_zone": "Europe/Bucharest",
    "is_city": false,
    "is_main_station": false,
    "is_airport": true,
    "entur_id": NaN,
    "entur_is_enabled": false,
    "trenord_id": NaN,
    "cercanias_id": NaN,
    "cercanias_hub_id": NaN,
    "cercanias_is_enabled": false
  },
  {
    "id": 35263,
    "name": "Predeal",
    "name_norm": "Predeal",
    "uic": NaN,
    "latitude": 45.505511,
    "longitude": 25.574809,
    "parent_station_id": NaN,
    "country": "RO",
    "time_zone": "Europe/Bucharest",
    "is_city": true,
    "is_main_station": false,
    "is_airport": false,
    "entur_id": NaN,
    "entur_is_enabled": false,
    "trenord_id": NaN,
    "cercanias_id": NaN,
    "cercanias_hub_id": NaN,
    "cercanias_is_enabled": false
  },
  {
    "id": 35309,
    "name": "Sânnicolau Mare",
    "name_norm": "Sannicolau Mare",
    "uic": NaN,
    "latitude": 46.081357,
    "longitude": 20.620044,
    "parent_station_id": NaN,
    "country": "RO",
    "time_zone": "Europe/Bucharest",
    "is_city": true,
    "is_main_station": false,
    "is_airport": false,
    "entur_id": NaN,
    "entur_is_enabled": false,
    "trenord_id": NaN,
    "cercanias_id": NaN,
    "cercanias_hub_id": NaN,
    "cercanias_is_enabled": false
  },
  {
    "id": 35674,
    "name": "Cristuru Secuiesc",
    "name_norm": "Cristuru Secuiesc",
    "uic": NaN,
    "latitude": 46.292453,
    "longitude": 25.031715,
    "parent_station_id": NaN,
    "country": "RO",
    "time_zone": "Europe/Bucharest",
    "is_city": true,
    "is_main_station": false,
    "is_airport": false,
    "entur_id": NaN,
    "entur_is_enabled": false,
    "trenord_id": NaN,
    "cercanias_id": NaN,
    "cercanias_hub_id": NaN,
    "cercanias_is_enabled": false
  },
  {
    "id": 35733,
    "name": "Bicaz",
    "name_norm": "Bicaz",
    "uic": NaN,
    "latitude": 46.909583,
    "longitude": 26.085392,
    "parent_station_id": NaN,
    "country": "RO",
    "time_zone": "Europe/Bucharest",
    "is_city": true,
    "is_main_station": false,
    "is_airport": false,
    "entur_id": NaN,
    "entur_is_enabled": false,
    "trenord_id": NaN,
    "cercanias_id": NaN,
    "cercanias_hub_id": NaN,
    "cercanias_is_enabled": false
  },
  {
    "id": 35736,
    "name": "Câmpulung Moldovenesc",
    "name_norm": "Campulung Moldovenesc",
    "uic": NaN,
    "latitude": 47.525701,
    "longitude": 25.57075,
    "parent_station_id": NaN,
    "country": "RO",
    "time_zone": "Europe/Bucharest",
    "is_city": true,
    "is_main_station": false,
    "is_airport": false,
    "entur_id": NaN,
    "entur_is_enabled": false,
    "trenord_id": NaN,
    "cercanias_id": NaN,
    "cercanias_hub_id": NaN,
    "cercanias_is_enabled": false
  },
  {
    "id": 35744,
    "name": "Gheorgheni",
    "name_norm": "Gheorgheni",
    "uic": NaN,
    "latitude": 46.721211,
    "longitude": 25.585528,
    "parent_station_id": NaN,
    "country": "RO",
    "time_zone": "Europe/Bucharest",
    "is_city": true,
    "is_main_station": false,
    "is_airport": false,
    "entur_id": NaN,
    "entur_is_enabled": false,
    "trenord_id": NaN,
    "cercanias_id": NaN,
    "cercanias_hub_id": NaN,
    "cercanias_is_enabled": false
  },
  {
    "id": 35762,
    "name": "Tarnaveni",
    "name_norm": "Tarnaveni",
    "uic": NaN,
    "latitude": 46.329314,
    "longitude": 24.293578,
    "parent_station_id": NaN,
    "country": "RO",
    "time_zone": "Europe/Bucharest",
    "is_city": true,
    "is_main_station": false,
    "is_airport": false,
    "entur_id": NaN,
    "entur_is_enabled": false,
    "trenord_id": NaN,
    "cercanias_id": NaN,
    "cercanias_hub_id": NaN,
    "cercanias_is_enabled": false
  },
  {
    "id": 35920,
    "name": "Baia Mare Airport",
    "name_norm": "Baia Mare Airport",
    "uic": NaN,
    "latitude": 47.661106,
    "longitude": 23.468019,
    "parent_station_id": NaN,
    "country": "RO",
    "time_zone": "Europe/Bucharest",
    "is_city": false,
    "is_main_station": false,
    "is_airport": true,
    "entur_id": NaN,
    "entur_is_enabled": false,
    "trenord_id": NaN,
    "cercanias_id": NaN,
    "cercanias_hub_id": NaN,
    "cercanias_is_enabled": false
  },
  {
    "id": 35941,
    "name": "Cluj Airport",
    "name_norm": "Cluj Airport",
    "uic": NaN,
    "latitude": 46.781396,
    "longitude": 23.68615,
    "parent_station_id": NaN,
    "country": "RO",
    "time_zone": "Europe/Bucharest",
    "is_city": false,
    "is_main_station": false,
    "is_airport": true,
    "entur_id": NaN,
    "entur_is_enabled": false,
    "trenord_id": NaN,
    "cercanias_id": NaN,
    "cercanias_hub_id": NaN,
    "cercanias_is_enabled": false
  },
  {
    "id": 35954,
    "name": "Sibiu Airport",
    "name_norm": "Sibiu Airport",
    "uic": NaN,
    "latitude": 45.790167,
    "longitude": 24.092789,
    "parent_station_id": NaN,
    "country": "RO",
    "time_zone": "Europe/Bucharest",
    "is_city": false,
    "is_main_station": false,
    "is_airport": true,
    "entur_id": NaN,
    "entur_is_enabled": false,
    "trenord_id": NaN,
    "cercanias_id": NaN,
    "cercanias_hub_id": NaN,
    "cercanias_is_enabled": false
  },
  {
    "id": 35966,
    "name": "Oradea Airport",
    "name_norm": "Oradea Airport",
    "uic": NaN,
    "latitude": 47.025629,
    "longitude": 21.896545,
    "parent_station_id": NaN,
    "country": "RO",
    "time_zone": "Europe/Bucharest",
    "is_city": false,
    "is_main_station": false,
    "is_airport": true,
    "entur_id": NaN,
    "entur_is_enabled": false,
    "trenord_id": NaN,
    "cercanias_id": NaN,
    "cercanias_hub_id": NaN,
    "cercanias_is_enabled": false
  },
  {
    "id": 38192,
    "name": "Calafat",
    "name_norm": "Calafat",
    "uic": NaN,
    "latitude": 43.989752,
    "longitude": 22.934115,
    "parent_station_id": NaN,
    "country": "RO",
    "time_zone": "Europe/Bucharest",
    "is_city": true,
    "is_main_station": false,
    "is_airport": false,
    "entur_id": NaN,
    "entur_is_enabled": false,
    "trenord_id": NaN,
    "cercanias_id": NaN,
    "cercanias_hub_id": NaN,
    "cercanias_is_enabled": false
  },
  {
    "id": 38316,
    "name": "Jupiter",
    "name_norm": "Jupiter",
    "uic": NaN,
    "latitude": 43.855497,
    "longitude": 28.606382,
    "parent_station_id": NaN,
    "country": "RO",
    "time_zone": "Europe/Bucharest",
    "is_city": true,
    "is_main_station": false,
    "is_airport": false,
    "entur_id": NaN,
    "entur_is_enabled": false,
    "trenord_id": NaN,
    "cercanias_id": NaN,
    "cercanias_hub_id": NaN,
    "cercanias_is_enabled": false
  },
  {
    "id": 38317,
    "name": "Saturn",
    "name_norm": "Saturn",
    "uic": NaN,
    "latitude": 43.829259,
    "longitude": 28.58075,
    "parent_station_id": NaN,
    "country": "RO",
    "time_zone": "Europe/Bucharest",
    "is_city": true,
    "is_main_station": false,
    "is_airport": false,
    "entur_id": NaN,
    "entur_is_enabled": false,
    "trenord_id": NaN,
    "cercanias_id": NaN,
    "cercanias_hub_id": NaN,
    "cercanias_is_enabled": false
  },
  {
    "id": 38332,
    "name": "Caciulata",
    "name_norm": "Caciulata",
    "uic": NaN,
    "latitude": 45.260077,
    "longitude": 24.321291,
    "parent_station_id": NaN,
    "country": "RO",
    "time_zone": "Europe/Bucharest",
    "is_city": true,
    "is_main_station": false,
    "is_airport": false,
    "entur_id": NaN,
    "entur_is_enabled": false,
    "trenord_id": NaN,
    "cercanias_id": NaN,
    "cercanias_hub_id": NaN,
    "cercanias_is_enabled": false
  },
  {
    "id": 38339,
    "name": "Voiteg",
    "name_norm": "Voiteg",
    "uic": NaN,
    "latitude": 45.460343,
    "longitude": 21.235216,
    "parent_station_id": NaN,
    "country": "RO",
    "time_zone": "Europe/Bucharest",
    "is_city": true,
    "is_main_station": false,
    "is_airport": false,
    "entur_id": NaN,
    "entur_is_enabled": false,
    "trenord_id": NaN,
    "cercanias_id": NaN,
    "cercanias_hub_id": NaN,
    "cercanias_is_enabled": false
  },
  {
    "id": 38342,
    "name": "Calimanesti",
    "name_norm": "Calimanesti",
    "uic": NaN,
    "latitude": 45.240496,
    "longitude": 24.341207,
    "parent_station_id": NaN,
    "country": "RO",
    "time_zone": "Europe/Bucharest",
    "is_city": true,
    "is_main_station": false,
    "is_airport": false,
    "entur_id": NaN,
    "entur_is_enabled": false,
    "trenord_id": NaN,
    "cercanias_id": NaN,
    "cercanias_hub_id": NaN,
    "cercanias_is_enabled": false
  },
  {
    "id": 38347,
    "name": "Eforie Nord",
    "name_norm": "Eforie Nord",
    "uic": NaN,
    "latitude": 44.066494,
    "longitude": 28.633596,
    "parent_station_id": NaN,
    "country": "RO",
    "time_zone": "Europe/Bucharest",
    "is_city": true,
    "is_main_station": false,
    "is_airport": false,
    "entur_id": NaN,
    "entur_is_enabled": false,
    "trenord_id": NaN,
    "cercanias_id": NaN,
    "cercanias_hub_id": NaN,
    "cercanias_is_enabled": false
  },
  {
    "id": 38348,
    "name": "Neptun",
    "name_norm": "Neptun",
    "uic": NaN,
    "latitude": 43.86905,
    "longitude": 28.597775,
    "parent_station_id": NaN,
    "country": "RO",
    "time_zone": "Europe/Bucharest",
    "is_city": true,
    "is_main_station": false,
    "is_airport": false,
    "entur_id": NaN,
    "entur_is_enabled": false,
    "trenord_id": NaN,
    "cercanias_id": NaN,
    "cercanias_hub_id": NaN,
    "cercanias_is_enabled": false
  },
  {
    "id": 38349,
    "name": "Venus",
    "name_norm": "Venus",
    "uic": NaN,
    "latitude": 43.844651,
    "longitude": 28.591769,
    "parent_station_id": NaN,
    "country": "RO",
    "time_zone": "Europe/Bucharest",
    "is_city": true,
    "is_main_station": false,
    "is_airport": false,
    "entur_id": NaN,
    "entur_is_enabled": false,
    "trenord_id": NaN,
    "cercanias_id": NaN,
    "cercanias_hub_id": NaN,
    "cercanias_is_enabled": false
  },
  {
    "id": 38350,
    "name": "Vama Veche",
    "name_norm": "Vama Veche",
    "uic": NaN,
    "latitude": 43.751877,
    "longitude": 28.571282,
    "parent_station_id": NaN,
    "country": "RO",
    "time_zone": "Europe/Bucharest",
    "is_city": true,
    "is_main_station": false,
    "is_airport": false,
    "entur_id": NaN,
    "entur_is_enabled": false,
    "trenord_id": NaN,
    "cercanias_id": NaN,
    "cercanias_hub_id": NaN,
    "cercanias_is_enabled": false
  },
  {
    "id": 38351,
    "name": "Urziceni",
    "name_norm": "Urziceni",
    "uic": NaN,
    "latitude": 44.714638,
    "longitude": 26.652369,
    "parent_station_id": NaN,
    "country": "RO",
    "time_zone": "Europe/Bucharest",
    "is_city": true,
    "is_main_station": false,
    "is_airport": false,
    "entur_id": NaN,
    "entur_is_enabled": false,
    "trenord_id": NaN,
    "cercanias_id": NaN,
    "cercanias_hub_id": NaN,
    "cercanias_is_enabled": false
  },
  {
    "id": 38352,
    "name": "Busteni",
    "name_norm": "Busteni",
    "uic": NaN,
    "latitude": 45.415885,
    "longitude": 25.537336,
    "parent_station_id": NaN,
    "country": "RO",
    "time_zone": "Europe/Bucharest",
    "is_city": true,
    "is_main_station": false,
    "is_airport": false,
    "entur_id": NaN,
    "entur_is_enabled": false,
    "trenord_id": NaN,
    "cercanias_id": NaN,
    "cercanias_hub_id": NaN,
    "cercanias_is_enabled": false
  },
  {
    "id": 38357,
    "name": "Azuga",
    "name_norm": "Azuga",
    "uic": NaN,
    "latitude": 45.444776,
    "longitude": 25.553143,
    "parent_station_id": NaN,
    "country": "RO",
    "time_zone": "Europe/Bucharest",
    "is_city": true,
    "is_main_station": false,
    "is_airport": false,
    "entur_id": NaN,
    "entur_is_enabled": false,
    "trenord_id": NaN,
    "cercanias_id": NaN,
    "cercanias_hub_id": NaN,
    "cercanias_is_enabled": false
  },
  {
    "id": 38358,
    "name": "Rasnov",
    "name_norm": "Rasnov",
    "uic": NaN,
    "latitude": 45.589199,
    "longitude": 25.475938,
    "parent_station_id": NaN,
    "country": "RO",
    "time_zone": "Europe/Bucharest",
    "is_city": true,
    "is_main_station": false,
    "is_airport": false,
    "entur_id": NaN,
    "entur_is_enabled": false,
    "trenord_id": NaN,
    "cercanias_id": NaN,
    "cercanias_hub_id": NaN,
    "cercanias_is_enabled": false
  },
  {
    "id": 38377,
    "name": "Bran",
    "name_norm": "Bran",
    "uic": NaN,
    "latitude": 45.516189,
    "longitude": 25.368933,
    "parent_station_id": NaN,
    "country": "RO",
    "time_zone": "Europe/Bucharest",
    "is_city": true,
    "is_main_station": false,
    "is_airport": false,
    "entur_id": NaN,
    "entur_is_enabled": false,
    "trenord_id": NaN,
    "cercanias_id": NaN,
    "cercanias_hub_id": NaN,
    "cercanias_is_enabled": false
  },
  {
    "id": 38399,
    "name": "Timisoara Airport",
    "name_norm": "Timisoara Airport",
    "uic": NaN,
    "latitude": 45.810147,
    "longitude": 21.320177,
    "parent_station_id": NaN,
    "country": "RO",
    "time_zone": "Europe/Bucharest",
    "is_city": false,
    "is_main_station": false,
    "is_airport": true,
    "entur_id": NaN,
    "entur_is_enabled": false,
    "trenord_id": NaN,
    "cercanias_id": NaN,
    "cercanias_hub_id": NaN,
    "cercanias_is_enabled": false
  },
  {
    "id": 67364,
    "name": "Aghireș",
    "name_norm": "Aghires",
    "uic": NaN,
    "latitude": 46.87328,
    "longitude": 23.246725,
    "parent_station_id": NaN,
    "country": "RO",
    "time_zone": "Europe/Bucharest",
    "is_city": true,
    "is_main_station": false,
    "is_airport": false,
    "entur_id": NaN,
    "entur_is_enabled": false,
    "trenord_id": NaN,
    "cercanias_id": NaN,
    "cercanias_hub_id": NaN,
    "cercanias_is_enabled": false
  },
  {
    "id": 67365,
    "name": "Aradul Nou",
    "name_norm": "Aradul Nou",
    "uic": NaN,
    "latitude": 46.144848,
    "longitude": 21.334899,
    "parent_station_id": NaN,
    "country": "RO",
    "time_zone": "Europe/Bucharest",
    "is_city": true,
    "is_main_station": false,
    "is_airport": false,
    "entur_id": NaN,
    "entur_is_enabled": false,
    "trenord_id": NaN,
    "cercanias_id": NaN,
    "cercanias_hub_id": NaN,
    "cercanias_is_enabled": false
  },
  {
    "id": 67366,
    "name": "Balota",
    "name_norm": "Balota",
    "uic": NaN,
    "latitude": 44.618264,
    "longitude": 22.800932,
    "parent_station_id": NaN,
    "country": "RO",
    "time_zone": "Europe/Bucharest",
    "is_city": true,
    "is_main_station": false,
    "is_airport": false,
    "entur_id": NaN,
    "entur_is_enabled": false,
    "trenord_id": NaN,
    "cercanias_id": NaN,
    "cercanias_hub_id": NaN,
    "cercanias_is_enabled": false
  },
  {
    "id": 67367,
    "name": "Bratca",
    "name_norm": "Bratca",
    "uic": NaN,
    "latitude": 46.92877,
    "longitude": 22.602998,
    "parent_station_id": NaN,
    "country": "RO",
    "time_zone": "Europe/Bucharest",
    "is_city": true,
    "is_main_station": false,
    "is_airport": false,
    "entur_id": NaN,
    "entur_is_enabled": false,
    "trenord_id": NaN,
    "cercanias_id": NaN,
    "cercanias_hub_id": NaN,
    "cercanias_is_enabled": false
  },
  {
    "id": 67368,
    "name": "Ciucea",
    "name_norm": "Ciucea",
    "uic": NaN,
    "latitude": 46.954731,
    "longitude": 22.810811,
    "parent_station_id": NaN,
    "country": "RO",
    "time_zone": "Europe/Bucharest",
    "is_city": true,
    "is_main_station": false,
    "is_airport": false,
    "entur_id": NaN,
    "entur_is_enabled": false,
    "trenord_id": NaN,
    "cercanias_id": NaN,
    "cercanias_hub_id": NaN,
    "cercanias_is_enabled": false
  },
  {
    "id": 67369,
    "name": "Drăgănești Olt",
    "name_norm": "Draganesti Olt",
    "uic": NaN,
    "latitude": 44.154358,
    "longitude": 24.544561,
    "parent_station_id": NaN,
    "country": "RO",
    "time_zone": "Europe/Bucharest",
    "is_city": true,
    "is_main_station": false,
    "is_airport": false,
    "entur_id": NaN,
    "entur_is_enabled": false,
    "trenord_id": NaN,
    "cercanias_id": NaN,
    "cercanias_hub_id": NaN,
    "cercanias_is_enabled": false
  },
  {
    "id": 67370,
    "name": "Episcopia Bihor",
    "name_norm": "Episcopia Bihor",
    "uic": NaN,
    "latitude": 47.099664,
    "longitude": 21.876958,
    "parent_station_id": NaN,
    "country": "RO",
    "time_zone": "Europe/Bucharest",
    "is_city": true,
    "is_main_station": false,
    "is_airport": false,
    "entur_id": NaN,
    "entur_is_enabled": false,
    "trenord_id": NaN,
    "cercanias_id": NaN,
    "cercanias_hub_id": NaN,
    "cercanias_is_enabled": false
  },
  {
    "id": 67371,
    "name": "Roșiori Nord",
    "name_norm": "Rosiori Nord",
    "uic": NaN,
    "latitude": 44.123057,
    "longitude": 24.978874,
    "parent_station_id": NaN,
    "country": "RO",
    "time_zone": "Europe/Bucharest",
    "is_city": true,
    "is_main_station": false,
    "is_airport": false,
    "entur_id": NaN,
    "entur_is_enabled": false,
    "trenord_id": NaN,
    "cercanias_id": NaN,
    "cercanias_hub_id": NaN,
    "cercanias_is_enabled": false
  },
  {
    "id": 67372,
    "name": "Șuncuiuș",
    "name_norm": "Suncuius",
    "uic": NaN,
    "latitude": 46.948718,
    "longitude": 22.537242,
    "parent_station_id": NaN,
    "country": "RO",
    "time_zone": "Europe/Bucharest",
    "is_city": true,
    "is_main_station": false,
    "is_airport": false,
    "entur_id": NaN,
    "entur_is_enabled": false,
    "trenord_id": NaN,
    "cercanias_id": NaN,
    "cercanias_hub_id": NaN,
    "cercanias_is_enabled": false
  },
  {
    "id": 67373,
    "name": "Videle",
    "name_norm": "Videle",
    "uic": NaN,
    "latitude": 44.283937,
    "longitude": 25.537383,
    "parent_station_id": NaN,
    "country": "RO",
    "time_zone": "Europe/Bucharest",
    "is_city": true,
    "is_main_station": false,
    "is_airport": false,
    "entur_id": NaN,
    "entur_is_enabled": false,
    "trenord_id": NaN,
    "cercanias_id": NaN,
    "cercanias_hub_id": NaN,
    "cercanias_is_enabled": false
  }
]